Traffic Report ID,Published Date,Issue Reported,Location,Latitude,Longitude,Address,Status,Status Date
D45A61D1E1A7032E2B2B123B1A39A1E86091C07F_1524420743000,04/22/2018 06:12:00 PM +0000,Traffic Hazard,"(30.346039,-97.572294)",30.346039,-97.572294,10326-10344 E US 290 HWY WB,ARCHIVED,04/22/2018 06:30:00 PM +0000
B949F95479E0CB8E73A521EC6135BA1CD766D865_1523865960000,04/16/2018 08:06:00 AM +0000,Traffic Hazard,"(30.314722,-97.662932)",30.314721999999996,-97.662932,6700-7448 Ed Bluestein Blvd Sb,ARCHIVED,04/16/2018 09:10:00 AM +0000
EA0A27268C155F17DC639A67B1AB97CCB5165233_1571919570,10/24/2019 12:19:30 PM +0000,Traffic Hazard,"(30.371393,-97.722835)",30.371392999999998,-97.722835,8816-8998 Research Blvd Sb,ARCHIVED,10/24/2019 01:20:04 PM +0000
8959169251E7394BCF4B9004326F83E266A06BFB_1613436913,02/16/2021 12:55:13 AM +0000,Traffic Hazard,"(30.29402,-97.747201)",30.29402,-97.747201,2800 San Gabriel St,ARCHIVED,02/16/2021 03:00:03 AM +0000
16DA813BD551FF6880E9C1BF6CEB03103EF69DB4_1550783595,02/21/2019 09:13:15 PM +0000,Traffic Hazard,"(30.261016,-97.735779)",30.261015999999998,-97.73577900000001,100-105 N Ih 35 Svrd Nb,ARCHIVED,02/21/2019 09:55:04 PM +0000
91A0461DA8536C97056D3B86390D0BDD472CA52B_1617118961,03/30/2021 03:42:41 PM +0000,Traffic Hazard,"(30.243079,-97.810925)",30.243078999999998,-97.810925,4100-4300 S Mopac Expy Sb,ARCHIVED,03/30/2021 04:05:03 PM +0000
03ED9F0B39F703C2F75D9CE00A84FB210C6FA885_1622951737,06/06/2021 03:55:37 AM +0000,Traffic Hazard,"(30.138631,-97.605441)",30.138631,-97.605441,14200-15924 Fagerquist Rd,ARCHIVED,06/06/2021 04:25:04 AM +0000
0DE1F0466A1DDBB39B3249511CD3FE60BE0D4D6C_1583088315,03/01/2020 06:45:15 PM +0000,Traffic Hazard,"(30.11016,-97.622934)",30.110159999999997,-97.622934,15110-15907 FM 812 RD,ARCHIVED,03/01/2020 07:10:03 PM +0000
02177BB470EC8D951EC376A1EDB9D76AC9B82BFE_1618160724,04/11/2021 05:05:24 PM +0000,Traffic Hazard,"(30.462058,-97.816351)",30.462058000000003,-97.816351,12201-12219 N Fm 620 Rd,ARCHIVED,04/11/2021 05:20:03 PM +0000
E25D00E0E79F3B1D2784A618DAB807A30DC7D0D7_1623633588,06/14/2021 01:19:48 AM +0000,COLLISION,"(30.458143,-97.677299)",30.458143,-97.677299,2214-2608 Grand Avenue Pkwy,ARCHIVED,06/14/2021 02:25:04 AM +0000
88C79C1DC9D13B2B592B9057730DF504809A43C1_1509933579000,11/06/2017 01:59:00 AM +0000,Traffic Hazard,"(30.225619,-97.890386)",30.225619000000002,-97.89038599999999,8200 FM 1826 RD,ARCHIVED,11/06/2017 02:05:00 AM +0000
FA59FADCBF0CEF35D5DFDA0B2B7308474E16F44E_1600525821,09/19/2020 02:30:21 PM +0000,Traffic Hazard,"(30.064871,-97.677477)",30.064871000000004,-97.677477,9400-9515 Bock Rd,ARCHIVED,09/19/2020 03:30:04 PM +0000
780E202B137A715C8D1B159E4E1540323203CDD8_1647378415,03/15/2022 09:06:55 PM +0000,COLLISION,"(30.288194,-97.576591)",30.288194,-97.57659100000001,N Fm 973 Rd & N Sh 130 Svrd Sb,ARCHIVED,03/15/2022 09:55:03 PM +0000
DA5EB7821DBF976B4784D1D020866EBE07542FC0_1582915074,02/28/2020 06:37:54 PM +0000,Traffic Hazard,"(30.39196,-97.910124)",30.391959999999997,-97.910124,4322-4345 N FM 620 RD,ARCHIVED,02/28/2020 06:50:03 PM +0000
B9B31B56D8B82C95ACF0F300853D587C81B0EBC0_1515700051000,01/11/2018 07:47:00 PM +0000,Traffic Hazard,"(30.421865,-97.747248)",30.421865000000004,-97.747248,0 Research Nb To Riata Trac Ramp,ARCHIVED,01/12/2018 02:05:00 AM +0000
9A3785795B4105ED5FDD249A33CE12BB7B6EE664_1590677789,05/28/2020 02:56:29 PM +0000,Traffic Hazard,"(30.430524,-97.724773)",30.430524,-97.724773,4900 W Parmer Ln,ARCHIVED,05/28/2020 03:15:04 PM +0000
9F06007D02B7DA59126A69422F135FCEE39E7652_1628637714,08/10/2021 11:21:54 PM +0000,COLLISION,"(30.392004,-97.77851)",30.392003999999996,-97.77851,6411 SPICEWOOD SPRINGS RD,ARCHIVED,08/11/2021 12:40:03 AM +0000
F220B708923B41B9B9EE5F9CDBB561FBE9C1A20B_1577305391,12/25/2019 08:23:11 PM +0000,Traffic Hazard,"(30.335301,-97.58808)",30.335301,-97.58808,11200-11325 N Sh 130 Nb,ARCHIVED,12/25/2019 10:15:04 PM +0000
474C2648302BEC1C0561BB62F769F3D4D8A1FB90_1626715677,07/19/2021 05:27:57 PM +0000,Traffic Hazard,"(30.46588,-97.581099)",30.46588,-97.581099,2600-blk Kelly Ln,ARCHIVED,07/19/2021 05:35:03 PM +0000
E74F0F1F0934FE0AB10AF864E8EA13C69913A897_1516913613000,01/25/2018 08:53:00 PM +0000,Traffic Hazard,"(30.191344,-97.769659)",30.191344,-97.76965899999999,6500 S Ih 35 Nb,ARCHIVED,01/26/2018 03:45:00 AM +0000
ADD97DAEFA483805F4A52716BA886AC2D97841B3,10/07/2017 07:20:00 AM +0000,COLLISION,"(30.456166,-97.6656461)",30.456165999999996,-97.66564609999999,GRAND AVENUE PKWY & N IH 35 SVRD NB,ARCHIVED,05/18/2018 01:00:00 AM +0000
518840ACEE770C7541A96E7202F3FF586F7B704D_1578933051,01/13/2020 04:30:51 PM +0000,COLLISION,"(30.186348,-97.609481)",30.186348,-97.609481,4500-4542 E SH 71 EB,ARCHIVED,01/13/2020 04:45:05 PM +0000
C1D262A03495880AB003DDE6D06A10E9E84013F5_1537140009,09/16/2018 11:20:09 PM +0000,COLLISION,"(30.397974,-97.857059)",30.397973999999998,-97.85705899999999,6600-BLK N FM 620 RD,ARCHIVED,09/17/2018 12:15:04 AM +0000
DEE280AB1D93172B099C842F680A8E40E389C4C6_1575647462,12/06/2019 03:51:02 PM +0000,COLLISION,"(30.440731,-97.667765)",30.440731,-97.667765,W WELLS BRANCH PKWY & N IH 35 SVRD NB,ARCHIVED,12/06/2019 04:15:05 PM +0000
AC711C0E8B83BE520E19D176CE432689B1E309DA_1646862450,03/09/2022 09:47:30 PM +0000,Traffic Hazard,"(30.234103,-97.722846)",30.234103,-97.72284599999999,S Pleasant Valley Rd & E Riverside Dr,ARCHIVED,03/09/2022 10:50:03 PM +0000
77639F5342DDFDDB38AA932CD45BA9997A1DCF79_1559153191,05/29/2019 06:06:31 PM +0000,Traffic Hazard,"(30.297488,-97.718037)",30.297488,-97.718037,4000 N IH 35 SB,ARCHIVED,05/29/2019 07:15:14 PM +0000
5EA0DF5C7A2580D149B68754A35EAB0C0DD18CC3_1648472494,03/28/2022 01:01:34 PM +0000,Traffic Hazard,"(30.048022,-97.642939)",30.048021999999996,-97.642939,CAMINO REAL & CALDER RD,ARCHIVED,03/28/2022 01:45:03 PM +0000
6F510F4A180384CE18F926AB595E20AE16FA1E2E_1610550155,01/13/2021 03:02:35 PM +0000,Traffic Hazard,"(30.392617,-97.746188)",30.392616999999998,-97.746188,Research Blvd Nb & N Cap Tx To Research Nb Ramp,ARCHIVED,01/13/2021 03:30:04 PM +0000
A1F9EBB629D421DA846278DBDDDACB353598EBFF_1537839155,09/25/2018 01:32:35 AM +0000,Traffic Hazard,"(30.221462,-97.622824)",30.221462,-97.622824,S Sh 130 Sb & Harold Green To S 130 Sb Ramp,ARCHIVED,09/25/2018 01:45:03 AM +0000
0CF1E822BDEEE81C31642D73DF2A5DB1ABCDB07A_1518066526000,02/08/2018 05:08:00 AM +0000,Traffic Hazard,"(30.312309,-97.735547)",30.312309000000003,-97.735547,801 - 917 W 45TH ST,ARCHIVED,02/08/2018 11:20:00 AM +0000
D584553119A41BDAF5910302B5C7771774ABCD4D_1540505036,10/25/2018 10:03:56 PM +0000,COLLISION,"(30.351335,-97.452344)",30.351335,-97.452344,16423-16733 E US 290 HWY EB,ARCHIVED,10/26/2018 12:25:02 AM +0000
ADEFDF1D5AF74D813709062BC4C8260DF5B485F7_1554261249,04/03/2019 03:14:09 AM +0000,Traffic Hazard,"(30.273699,-97.634724)",30.273699,-97.634724,8600-9025 Fm 969 Rd,ARCHIVED,04/03/2019 03:25:04 AM +0000
9D7AEF07BC006AA9B97D1E2E2E6A332523715C7E_1574526593,11/23/2019 04:29:53 PM +0000,Traffic Hazard,"(30.26637,-97.625009)",30.266370000000002,-97.62500899999999,10100-10507 Fm 969 Rd,ARCHIVED,11/23/2019 04:50:04 PM +0000
FED029A9A41FEB8E4AD1871EF9B4E1761CD1DAB6_1630849852,09/05/2021 01:50:52 PM +0000,Traffic Hazard,"(30.373584,-97.727041)",30.373584,-97.727041,9011-9099 Research Blvd Nb,ARCHIVED,09/05/2021 02:20:03 PM +0000
D9B55863436F0FDA0DB648E8B219654141FC8270_1570107723,10/03/2019 01:02:03 PM +0000,Traffic Hazard,"(30.345813,-97.677475)",30.345813,-97.677475,Ferguson Ln & Cameron Rd,ARCHIVED,10/03/2019 02:25:04 PM +0000
ADB38019446C733C064840E350C72C0A9FA975CB_1614219165,02/25/2021 02:12:45 AM +0000,COLLISION,"(30.462985,-97.597557)",30.462984999999996,-97.597557,1900-2417 Fm 685 Rd,ARCHIVED,02/25/2021 02:25:03 AM +0000
C18599781823E7340AFF1F2B4D728F0FEBDEC4A6_1514042640000,12/23/2017 03:24:00 PM +0000,COLLISION,"(30.237505,-97.5735)",30.237505,-97.5735,4500-4535 Kind Way,ARCHIVED,12/23/2017 05:10:00 PM +0000
8545019B082C565916F738AAAE5A8ADD78270A3F_1649168752,04/05/2022 02:25:52 PM +0000,COLLISION,"(30.146092,-97.653456)",30.146092,-97.653456,11717 MC ANGUS RD,ARCHIVED,04/05/2022 02:35:03 PM +0000
9304739C29A855AF7DDB1CFC420CB7CF57726E00_1536271748,09/06/2018 10:09:08 PM +0000,Traffic Hazard,"(30.212175,-97.711589)",30.212175,-97.711589,6300-7139 E BEN WHITE BLVD EB,ARCHIVED,09/06/2018 10:50:03 PM +0000
1779E398E459464E06C5BC073DF31D628117B618_1637788026,11/24/2021 09:07:06 PM +0000,COLLISION,"(30.2418,-98.018598)",30.2418,-98.018598,FITZHUGH RD & PRESLAR CIR,ARCHIVED,11/24/2021 09:20:03 PM +0000
CBF66D9068A45E5BAB15D71763BE5BFF61B52C19_1634426326,10/16/2021 11:18:46 PM +0000,COLLISION,"(30.34965,-97.519353)",30.34965,-97.51935300000001,13000-13123 E US 290 HWY EB,ARCHIVED,10/17/2021 12:25:03 AM +0000
415D2E4353963C539961C46AD289844F4093BA96_1560282001,06/11/2019 07:40:01 PM +0000,Traffic Hazard,"(30.372471,-97.740921)",30.372471,-97.740921,8500 N Mopac Expy Sb,ARCHIVED,06/11/2019 08:30:05 PM +0000
54D3F3517C8183E9317C62F6C01455D00160E63F_1625863561,07/09/2021 08:46:01 PM +0000,COLLISION,"(30.288555,-97.583503)",30.288555,-97.58350300000001,N Fm 973 Rd & Hog Eye Rd,ARCHIVED,07/09/2021 09:30:02 PM +0000
D1979B936C2CD632C16030D3129A53A175EBA857_1630716899,09/04/2021 12:54:59 AM +0000,COLLISION,"(30.349493,-97.529991)",30.349493,-97.52999100000001,E Us 290 Hwy Wb & Greenbury Dr,ARCHIVED,09/04/2021 02:00:03 AM +0000
7CA48B0569F515A124807357262BB8714E81FCA3_1639616847,12/16/2021 01:07:27 AM +0000,Traffic Hazard,"(30.164182,-97.692911)",30.164182,-97.692911,S Us 183 Hwy Nb & Fm 812 Rd,ARCHIVED,12/16/2021 01:25:04 AM +0000
98723B7A427F347D6A78C1EE6E00749B0EAE4E9F_1570988873,10/13/2019 05:47:53 PM +0000,Traffic Hazard,"(30.305779,-97.702833)",30.305778999999998,-97.702833,E 51st St & Mueller Blvd,ARCHIVED,10/13/2019 06:15:04 PM +0000
ADB38019446C733C064840E350C72C0A9FA975CB_1601866873,10/05/2020 03:01:13 AM +0000,Traffic Hazard,"(30.250168,-97.48543)",30.250168,-97.48543000000001,21134 Blake Manor Rd,ARCHIVED,10/05/2020 03:25:03 AM +0000
E6316CE57BDFB11AD5505C16D4769C846A54E34C_1581734640,02/15/2020 02:44:00 AM +0000,Traffic Hazard,"(30.400316,-97.673881)",30.400315999999997,-97.67388100000001,12400 N Ih 35 Nb,ARCHIVED,02/15/2020 03:20:04 AM +0000
D9D1492C96AD97F85C42C0A1B99E8CD57E8DCE2E_1650481452,04/20/2022 07:04:12 PM +0000,Traffic Hazard,"(30.383913,-97.938502)",30.383913,-97.938502,15301 Storm Dr,ARCHIVED,04/20/2022 07:50:02 PM +0000
3259CB20A537C3539F365141FA16B8651163F575_1515312879000,01/07/2018 08:14:00 AM +0000,Traffic Hazard,"(30.385016,-97.766748)",30.385015999999997,-97.76674799999999,N Capital Of Texas Hwy Nb & Spicewood Springs Rd,ARCHIVED,01/07/2018 08:30:00 AM +0000
3A8F35FDD6232E7B5FFFF2C41EAEAA7FE408C88B_1647219272,03/14/2022 12:54:32 AM +0000,COLLISION,"(30.186834,-97.603245)",30.186834,-97.603245,4544-4578 E Sh 71 Eb,ARCHIVED,03/14/2022 02:10:03 AM +0000
A72C84FF134C9898E4E2CEAEF93DC24DA61D0E30_1646696754,03/07/2022 11:45:54 PM +0000,Traffic Hazard,"(30.186348,-97.609481)",30.186348,-97.609481,E Sh 71 Eb & Ross Rd,ARCHIVED,03/08/2022 12:10:04 AM +0000
EB9E8A480710C0251EE2986C3DDFBF399A5F1FBC_1533468789,08/05/2018 11:33:09 AM +0000,Traffic Hazard,"(30.243329,-97.735064)",30.243329,-97.73506400000001,Elmhurst Dr & S Ih 35 Svrd Nb,ARCHIVED,08/05/2018 11:45:02 AM +0000
54D3F3517C8183E9317C62F6C01455D00160E63F_1524557438000,04/24/2018 08:10:00 AM +0000,Traffic Hazard,"(30.400695,-97.748892)",30.400695000000002,-97.748892,Jollyville Rd & W Braker Ln,ARCHIVED,04/24/2018 08:40:00 AM +0000
64C84E952453CD25D3097C7CFB8BA8178A0D109F_1582668482,02/25/2020 10:08:02 PM +0000,Traffic Hazard,"(30.270292,-97.754594)",30.270291999999998,-97.754594,0 W 5th St & N Lamar Blvd,ARCHIVED,02/25/2020 10:55:03 PM +0000
09F8DF3C750BF6D2D367D1934CF0488F4576DBCD_1568166160,09/11/2019 01:42:40 AM +0000,Traffic Hazard,"(30.437607,-97.567657)",30.437607,-97.567657,17606-17725 Weiss Ln,ARCHIVED,09/11/2019 01:55:03 AM +0000
F506761568D2F26EC5E68443A6AAAE857F8311A6_1583962370,03/11/2020 09:32:50 PM +0000,Traffic Hazard,"(30.325941,-97.726325)",30.325940999999997,-97.726325,600-726 W Koenig Ln,ARCHIVED,03/11/2020 11:50:03 PM +0000
D9BC87DD9580C87C7378651D4235E297EBB962ED_1585952709,04/03/2020 10:25:09 PM +0000,Traffic Hazard,"(30.180945,-97.750247)",30.180945,-97.750247,E William Cannon Dr & Meadow Lake Blvd,ARCHIVED,04/03/2020 10:45:03 PM +0000
4349011A36CEF1949436334730AD35FA3205D573_1569941718,10/01/2019 02:55:18 PM +0000,Traffic Hazard,"(30.298753,-97.793356)",30.298753,-97.793356,1603 Westlake Dr,ARCHIVED,10/01/2019 03:05:04 PM +0000
FEC3F49EB8E803BC30A24ED51FD04E89853CA09F_1574702360,11/25/2019 05:19:20 PM +0000,Traffic Hazard,"(30.294731,-97.635237)",30.294731,-97.635237,7361-7999 Loyola Ln,ARCHIVED,11/25/2019 05:40:04 PM +0000
F036D211DB09AD5A6BAD7E6BF7EDF80C7C1B9511_1580308160,01/29/2020 02:29:20 PM +0000,COLLISION,"(30.463891,-97.810622)",30.463890999999997,-97.810622,N FM 620 RD & DEERBROOK TRL,ARCHIVED,01/29/2020 02:35:05 PM +0000
3CA160CEAE9440FF85D9E90C5CFF9DA4BCCCD286_1561763970,06/28/2019 11:19:30 PM +0000,Traffic Hazard,"(30.220453,-97.622819)",30.220453000000003,-97.62281899999999,1627 S SH 130 SB,ARCHIVED,06/28/2019 11:30:04 PM +0000
03ED9F0B39F703C2F75D9CE00A84FB210C6FA885_1639457273,12/14/2021 04:47:53 AM +0000,COLLISION,"(30.285329,-97.636651)",30.285328999999997,-97.636651,8207 Canoga Ave,ARCHIVED,12/14/2021 06:40:03 AM +0000
BC95C414A842DF6B90AC3D79F1F74D551D165565_1578084174,01/03/2020 08:42:54 PM +0000,Traffic Hazard,"(30.235871,-97.728306)",30.235871000000003,-97.728306,2204 Woodland Ave,ARCHIVED,01/03/2020 08:55:03 PM +0000
CDF61942C1B0FC67819367EDC682E0C5FD5E427F_1537962386,09/26/2018 11:46:26 AM +0000,Traffic Hazard,"(30.260635,-97.674374)",30.260634999999997,-97.674374,2100 ED BLUESTEIN BLVD NB,ARCHIVED,09/26/2018 12:35:03 PM +0000
3AEC82C18CCCA37A61500A2C658E353667387D9D_1564083994,07/25/2019 07:46:34 PM +0000,Traffic Hazard,"(30.17075,-97.783806)",30.17075,-97.78380600000001,8600 S Ih 35 Sb,ARCHIVED,07/25/2019 07:55:03 PM +0000
03C342A614E0FB0E7B273BB21C094392F520AC28_1527890267000,06/01/2018 09:57:00 PM +0000,Traffic Hazard,"(30.175344,-97.780781)",30.175344,-97.780781,8100 S Ih 35 Sb,ARCHIVED,06/01/2018 10:30:00 PM +0000
FBCE66F99C809283638F344ECB3D50674EA64189_1536962757,09/14/2018 10:05:57 PM +0000,Traffic Hazard,"(30.321868,-97.694956)",30.321868,-97.694956,Cameron Rd & E Us 290 Hwy Svrd Wb,ARCHIVED,09/14/2018 10:25:02 PM +0000
C74915C0DD4057770BB5B5E0B2330CE8337BCD32_1532772729,07/28/2018 10:12:09 AM +0000,Traffic Hazard,"(30.299921,-97.716618)",30.299921,-97.71661800000001,4300 N Ih 35 Upper Deck Sb,ARCHIVED,07/28/2018 11:35:02 AM +0000
490E6F8654D79B3C7760DCF5188FCBFB9F4122A9_1566573453,08/23/2019 03:17:33 PM +0000,Traffic Hazard,"(30.22991,-97.792805)",30.229909999999997,-97.792805,Pack Saddle Pass & Western Trails Blvd,ARCHIVED,08/23/2019 03:30:04 PM +0000
26E3DE7668EB5A544AC71628C27A124C14C01688_1527451576000,05/27/2018 08:06:00 PM +0000,COLLISION,"(30.372903,-97.529712)",30.372903000000004,-97.529712,TINAJERO WAY & PERNELLA RD,ARCHIVED,05/27/2018 08:30:00 PM +0000
BC95C414A842DF6B90AC3D79F1F74D551D165565_1585873957,04/03/2020 12:32:37 AM +0000,Traffic Hazard,"(30.23495,-97.857734)",30.23495,-97.857734,W Us 290 Hwy Eb & Joe Tanner Ln,ARCHIVED,04/03/2020 12:40:04 AM +0000
77086F48B88DC80058F6E5266C6BBB1C0EB826E0_1654271924,06/03/2022 03:58:44 PM +0000,Traffic Hazard,"(30.224966,-97.724988)",30.224966,-97.724988,2501 Wickersham Ln,ARCHIVED,06/03/2022 05:20:03 PM +0000
06610FA060E114F26AD7660390D7D9864E0095D8_1518797050000,02/16/2018 04:04:00 PM +0000,Traffic Hazard,"(30.225968,-97.745872)",30.225967999999998,-97.74587199999999,3000-3500 S IH 35 SB,ARCHIVED,02/16/2018 11:35:00 PM +0000
21CB2D42D2E92D6DF6A0CE53A8E5C8884F893B07_1624049391,06/18/2021 08:49:51 PM +0000,COLLISION,"(30.252171,-97.558226)",30.252171,-97.558226,16400-16726 Fm 969 Rd,ARCHIVED,06/18/2021 09:45:03 PM +0000
B380719B3B4EE5F61892CCDBF5A0C8A16A83AAA9_1570244571,10/05/2019 03:02:51 AM +0000,COLLISION,"(30.345095,-97.576127)",30.345095,-97.576127,10193-10257 E Us 290 Hwy Eb,ARCHIVED,10/05/2019 03:10:04 AM +0000
DC543D2ABBB092D676B4E412354E0D2E0D7BF91B_1528384147000,06/07/2018 03:09:00 PM +0000,Traffic Hazard,"(30.236666,-97.822208)",30.236665999999996,-97.82220799999999,4800-4911 S MOPAC EXPY SVRD NB,ARCHIVED,06/07/2018 04:15:00 PM +0000
589426A8623F4C5968A9221251D565E029D102B9_1620590297,05/09/2021 07:58:17 PM +0000,Traffic Hazard,"(30.258003,-97.812321)",30.258003000000002,-97.812321,2430-2728 S Capital Of Texas Hwy Sb,ARCHIVED,05/09/2021 08:15:02 PM +0000
76635F43096F776168A3A73F979FEB2F2C885B00_1569123376,09/22/2019 03:36:16 AM +0000,Traffic Hazard,"(30.167354,-97.659302)",30.167354,-97.659302,Burleson Rd & S Fm 973 Rd,ARCHIVED,09/22/2019 05:10:04 AM +0000
BCA0E8B2B9EA6D1E0BDEB6541E23707A14E1F28F_1603317062,10/21/2020 09:51:02 PM +0000,Traffic Hazard,"(30.435356,-97.678983)",30.435356,-97.678983,1903 MARGALENE WAY,ARCHIVED,10/21/2020 10:15:03 PM +0000
AA15E7B810A9A4F8365AF533AA9D990872E0417F_1607725725,12/11/2020 10:28:45 PM +0000,COLLISION,"(30.46618,-97.596957)",30.466179999999998,-97.59695699999999,18666 Limestone Commercial Dr,ARCHIVED,12/11/2020 10:35:03 PM +0000
23C48E1AA4867FD335AC3497FA1061DE28CC7819_1536488246,09/09/2018 10:17:26 AM +0000,Traffic Hazard,"(30.283708,-97.655652)",30.283708,-97.655652,6600-6916 Fm 969 Rd,ARCHIVED,09/09/2018 10:30:03 AM +0000
8B62E9BF889637023EC40BDA71AD6F24EE443C1A_1526645449000,05/18/2018 12:10:00 PM +0000,Traffic Hazard,"(30.407991,-97.674716)",30.407991,-97.674716,12600 N IH 35 SB,ARCHIVED,05/18/2018 12:25:00 PM +0000
780E202B137A715C8D1B159E4E1540323203CDD8_1570836714,10/11/2019 11:31:54 PM +0000,COLLISION,"(30.14823,-97.874654)",30.148229999999998,-97.874654,3506 Bliss Spillar Rd,ARCHIVED,10/12/2019 12:25:04 AM +0000
F19483C6A9FBACFEBFF05EB372439D8C0403745F_1522350791000,03/29/2018 07:13:00 PM +0000,Traffic Hazard,"(30.353836,-97.726011)",30.353835999999998,-97.726011,MULLEN DR & W ANDERSON LN,ARCHIVED,03/29/2018 07:45:00 PM +0000
ABCD1C5876F36174110775438923CE78ACBF8594_1607128280,12/05/2020 12:31:20 AM +0000,COLLISION,"(30.318216,-97.994474)",30.318215999999996,-97.994474,W SH 71 & VAIL DIVIDE,ARCHIVED,12/05/2020 12:40:03 AM +0000
DE62D8119CFAFFD3639CDD8A8DEEA6A2A0EA7633_1624746108,06/26/2021 10:21:48 PM +0000,Traffic Hazard,"(30.394246,-97.579796)",30.394246000000003,-97.579796,14200-14724 N Sh 130 Sb,ARCHIVED,06/26/2021 10:30:03 PM +0000
4E999D40954C92BF50A6B99FA69B04A76E9F55C3_1542343229,11/16/2018 04:40:29 AM +0000,COLLISION,"(30.457632,-97.666692)",30.457632,-97.666692,16000 N Ih 35 Nb,ARCHIVED,11/16/2018 04:50:04 AM +0000
AEEF1B612C266FDBBD09EF5C274E670DF0718AD7_1529296019,06/18/2018 04:26:59 AM +0000,Traffic Hazard,"(30.237614,-97.823025)",30.237614,-97.823025,0 S Mopac Sb To W Us 290 Wb Ramp,ARCHIVED,06/18/2018 05:40:04 AM +0000
06072EB4F0454CBD924930E1FD2F06787E77D416_1652919502,05/19/2022 12:18:22 AM +0000,COLLISION,"(30.477648,-97.9521)",30.477648,-97.9521,19403-19420 FM 1431 RD,ARCHIVED,05/19/2022 01:25:02 AM +0000
401A71AFFC7E0682EE781768CE2BB2DEE29319E9_1649675253,04/11/2022 11:07:33 AM +0000,Traffic Hazard,"(30.43464,-97.654134)",30.43464,-97.654134,501-637 W Wells Branch Pkwy,ARCHIVED,04/11/2022 11:45:03 AM +0000
7D5067934C8A2B1555869FB30AAC52562CCD6BD1_1571229989,10/16/2019 12:46:29 PM +0000,Traffic Hazard,"(30.256093,-97.610324)",30.256093,-97.610324,11600-12224 FM 969 RD,ARCHIVED,10/16/2019 12:55:02 PM +0000
B6808C6A6514680B9D8425C63148958350B9EAF6_1507879378000,10/13/2017 07:22:00 AM +0000,Traffic Hazard,"(30.179337,-97.796074)",30.179337,-97.796074,8400 S 1st St,ARCHIVED,05/18/2018 01:00:00 AM +0000
5EA0DF5C7A2580D149B68754A35EAB0C0DD18CC3_1567164813,08/30/2019 11:33:33 AM +0000,COLLISION,"(30.152424,-97.767285)",30.152424,-97.767285,E SLAUGHTER LN & BLUFF SPRINGS RD,ARCHIVED,08/30/2019 12:20:03 PM +0000
2B87DED29A871F25367D27E201897686FF4F6B0C_1511798607000,11/27/2017 04:03:00 PM +0000,Traffic Hazard,"(30.413218,-97.690618)",30.413218,-97.690618,Metric Blvd & W Parmer Ln,ARCHIVED,11/27/2017 06:00:00 PM +0000
5070BE49E5B2AEE2297A3F986768A4AA0E7B1442_1626907945,07/21/2021 10:52:25 PM +0000,COLLISION,"(30.296311,-97.830544)",30.296311,-97.83054399999999,6100-6325 Fm 2244 Rd,ARCHIVED,07/21/2021 11:25:03 PM +0000
BFBF712F9985A2F57F13FF1F56DCB6F5921A3B49_1616906405,03/28/2021 04:40:05 AM +0000,Traffic Hazard,"(30.376827,-97.501459)",30.376827000000002,-97.501459,14700-14959 BOIS D ARC RD,ARCHIVED,03/28/2021 05:15:03 AM +0000
58A2AF869FDA42032912254F13E954E3756303FD_1515442311000,01/08/2018 08:11:00 PM +0000,Traffic Hazard,"(30.386093,-97.615629)",30.386093,-97.615629,4800-blk E HOWARD LN,ARCHIVED,01/09/2018 02:45:00 AM +0000
4758520F4C2D237EA28E5E67F237DE4D96276C85_1530293976,06/29/2018 05:39:36 PM +0000,Traffic Hazard,"(30.324362,-97.749896)",30.324362,-97.74989599999999,2705 W 49th St,ARCHIVED,06/29/2018 05:55:02 PM +0000
88BC6A0EFDFDA3DDD001177E6317A7D44ECC5D81_1544235098,12/08/2018 02:11:38 AM +0000,Traffic Hazard,"(30.271633,-97.796276)",30.271633,-97.796276,3100-blk BEE CAVES RD,ARCHIVED,12/08/2018 02:50:03 AM +0000
0D0B359CF59B0F9E0BA32C31996184FD19B470F3_1568142790,09/10/2019 07:13:10 PM +0000,Traffic Hazard,"(30.262556,-97.627556)",30.262556,-97.62755600000001,4510-blk Aristocrat Dr,ARCHIVED,09/10/2019 07:45:06 PM +0000
D1979B936C2CD632C16030D3129A53A175EBA857_1622601159,06/02/2021 02:32:39 AM +0000,Traffic Hazard,"(30.416754,-97.576283)",30.416753999999997,-97.57628299999999,Cameron Rd & E Pecan St,ARCHIVED,06/02/2021 02:55:03 AM +0000
932FD8564738BF120BEF9EB721FEAC947797C99F_1567559660,09/04/2019 01:14:20 AM +0000,COLLISION,"(30.433367,-97.890219)",30.433366999999997,-97.89021899999999,FM 2769 RD & POCOHONTAS TRL,ARCHIVED,09/04/2019 01:55:03 AM +0000
366ED27E3ED6AB3618F8E6CBFF6D423B53BC459D_1633028969,09/30/2021 07:09:29 PM +0000,COLLISION,"(30.220509,-97.758314)",30.220509000000003,-97.758314,500 E Ben White Blvd Svrd Wb,ARCHIVED,09/30/2021 07:20:03 PM +0000
BFAC6A4B8FAC8CC5337C3E58459324C560CFEA67_1584075804,03/13/2020 05:03:24 AM +0000,Traffic Hazard,"(30.220088,-97.758746)",30.220088,-97.758746,501 E Ben White Blvd Eb,ARCHIVED,03/13/2020 05:50:03 AM +0000
C1C3980607E0D1A7307A39A91165A041B97E3E8C_1640106304,12/21/2021 05:05:04 PM +0000,Traffic Hazard,"(30.248028,-97.735759)",30.248028,-97.735759,S Ih 35 Svrd Sb & E Riverside Dr,ARCHIVED,12/21/2021 05:25:08 PM +0000
6B20382196FB454E9FD06A33E60142902A2F0706_1576347520,12/14/2019 06:18:40 PM +0000,Traffic Hazard,"(30.13679,-97.718331)",30.13679,-97.718331,7701-8927 SASSMAN RD,ARCHIVED,12/14/2019 06:30:04 PM +0000
49528C78AB65B909A799FA01D7210A50E735D0D3_1562290356,07/05/2019 01:32:36 AM +0000,Traffic Hazard,"(30.339498,-97.700601)",30.339498,-97.700601,E Anderson Ln Svrd Eb & N Ih 35 Svrd Sb,ARCHIVED,07/05/2019 03:00:08 AM +0000
62F65D222E45D9E913A5D06D114F275B6A926CC7_1638411224,12/02/2021 02:13:44 AM +0000,Traffic Hazard,"(30.287388,-98.052847)",30.287388,-98.052847,Hamilton Pool Rd & Longhorn Skwy,ARCHIVED,12/02/2021 02:30:03 AM +0000
00F36866326DA3B8DDE0D960226DCD6AFB5AF127_1507878949000,10/13/2017 07:15:00 AM +0000,Traffic Hazard,"(30.17438,-97.7989)",30.17438,-97.7989,8600-8819 S 1ST ST,ARCHIVED,05/18/2018 01:00:00 AM +0000
4DD7E5DD0410798A96A8F2E380DFE07581D5174B_1652123538,05/09/2022 07:12:18 PM +0000,Traffic Hazard,"(30.283691,-97.752176)",30.283690999999997,-97.752176,1901 N Lamar Blvd,ARCHIVED,05/09/2022 07:35:03 PM +0000
9304509649FAD1E302F612507DF3EE7CABF65B17_1524401624000,04/22/2018 12:53:00 PM +0000,Traffic Hazard,"(30.302123,-97.660928)",30.302122999999998,-97.660928,6000-6417 Ed Bluestein Blvd Nb,,04/22/2018 12:55:00 PM +0000
5BDF0A2DA996D5D89B383318AFDA6FC994A63D58_1522590919000,04/01/2018 01:55:00 PM +0000,Traffic Hazard,"(30.285485,-97.537294)",30.285484999999998,-97.53729399999999,7710-9619 TAYLOR LN,ARCHIVED,04/01/2018 02:10:00 PM +0000
26CED0B5EA2B6F3C8B1E5090A6CDBDFAE5A6F853_1526487150000,05/16/2018 04:12:00 PM +0000,Traffic Hazard,"(30.336931,-97.70201)",30.336931,-97.70201,7500-7706 N Ih 35 Svrd Sb,ARCHIVED,05/16/2018 05:15:00 PM +0000
8F102B2BE79803391E93A93E7B21A98FEE3F781A_1653769176,05/28/2022 08:19:36 PM +0000,COLLISION,"(30.435875,-97.674928)",30.435875,-97.67492800000001,W Wells Branch Pkwy & Wells Port Dr,ARCHIVED,05/28/2022 08:55:03 PM +0000
64784BEDD53258D0152783E812438F26F69DA48C_1613787550,02/20/2021 02:19:10 AM +0000,Traffic Hazard,"(30.23385,-97.741652)",30.23385,-97.741652,S Ih 35 Svrd Sb & E Oltorf St,ARCHIVED,02/20/2021 02:30:03 AM +0000
5D22A80605A592F60F2CDE0BF0D59FF70A54A329_1568846943,09/18/2019 10:49:03 PM +0000,COLLISION,"(30.308222,-97.797264)",30.308221999999997,-97.797264,TORO CANYON RD & THE HIGH RD,ARCHIVED,09/18/2019 11:45:04 PM +0000
B5F55A9D15C6752E5D9DFD7336FFB008B403DC19_1530051353,06/26/2018 10:15:53 PM +0000,COLLISION,"(30.46065,-97.694703)",30.46065,-97.694703,BURNET RD & SHORELINE DR,ARCHIVED,06/26/2018 10:25:02 PM +0000
4A8785CC9F1B1064951B1AAEF4810DA59820E6ED_1623461113,06/12/2021 01:25:13 AM +0000,Traffic Hazard,"(30.192529,-97.729032)",30.192528999999997,-97.72903199999999,5916-6034 E STASSNEY LN,ARCHIVED,06/12/2021 03:35:03 AM +0000
7913B58EA58F94C503B9830B71997A88E35BAF13_1574265972,11/20/2019 04:06:12 PM +0000,Traffic Hazard,"(30.190991,-97.771666)",30.190990999999997,-97.771666,804 E William Cannon Dr,ARCHIVED,11/20/2019 05:15:04 PM +0000
026163C85E903E67F039F05E9A80218311817CF1_1535232048,08/25/2018 09:20:48 PM +0000,COLLISION,"(30.456161,-97.665638)",30.456160999999998,-97.665638,N Ih 35 Svrd Nb & Grand Avenue Pkwy,ARCHIVED,08/25/2018 09:28:02 PM +0000
C5BFB955B32F344A6D546172A9D92E711AE92CF4_1516079145000,01/16/2018 05:05:00 AM +0000,Traffic Hazard,"(30.29995,-97.716781)",30.29995,-97.71678100000001,N Ih 35 Svrd Sb & Clarkson Ave,ARCHIVED,01/16/2018 11:25:00 AM +0000
F036D211DB09AD5A6BAD7E6BF7EDF80C7C1B9511_1655647515,06/19/2022 02:05:15 PM +0000,Traffic Hazard,"(30.268107,-97.494802)",30.268107,-97.494802,19966-21051 Blake Manor Rd,ARCHIVED,06/19/2022 02:40:02 PM +0000
66C9001ED3D7697B23819BF3B9EFBD504E52389D_1613687649,02/18/2021 10:34:09 PM +0000,Traffic Hazard,"(30.46776,-97.795709)",30.46776,-97.795709,0 Us 183 Nb To Sh 45 Eb Ramp,ARCHIVED,02/19/2021 01:20:03 AM +0000
4EC9F4EB1CF064513747B5E058DD05F3F6D6B737_1636273822,11/07/2021 08:30:22 AM +0000,COLLISION,"(30.163218,-97.725832)",30.163218,-97.725832,E William Cannon Dr & Mc Kinney Falls Pkwy,ARCHIVED,11/07/2021 10:10:02 AM +0000
035D4223E2FE7A08D1E249A6A5090950D1FDC4E1_1594442410,07/11/2020 04:40:10 AM +0000,Traffic Hazard,"(30.462769,-97.66799)",30.462769,-97.66799,16231 N IH 35 SVRD NB,ARCHIVED,07/11/2020 04:55:03 AM +0000
E3B16A64D7DF0C49D0CB1325FCEDFE64B216D786_1584204968,03/14/2020 04:56:08 PM +0000,Traffic Hazard,"(30.4015,-97.679188)",30.4015,-97.679188,12200-12249 N Lamar Blvd,ARCHIVED,03/14/2020 05:25:03 PM +0000
1533AD56150B32637090BE48AF8EEF374BDE71E4_1551194669,02/26/2019 03:24:29 PM +0000,Traffic Hazard,"(30.342089,-97.587354)",30.342089,-97.587354,10062-10106 E Us 290 Hwy Wb,ARCHIVED,02/26/2019 04:30:05 PM +0000
F3B9B5274F80FDD4B64241FA92292E41EDABBE36_1591471314,06/06/2020 07:21:54 PM +0000,Traffic Hazard,"(30.339464,-97.700918)",30.339464000000003,-97.700918,700-709 E Anderson Ln Svrd Eb,ARCHIVED,06/06/2020 07:40:04 PM +0000
23C48E1AA4867FD335AC3497FA1061DE28CC7819_1655317350,06/15/2022 06:22:30 PM +0000,Traffic Hazard,"(30.297878,-97.79412)",30.297878000000004,-97.79411999999999,1505-1603 WESTLAKE DR,ARCHIVED,06/15/2022 06:35:03 PM +0000
322D4D7214A6E86E667EFE2B0064225A8882B628_1525600051000,05/06/2018 09:47:00 AM +0000,Traffic Hazard,"(30.185391,-97.928925)",30.185391,-97.928925,12300-12539 Fm 1826 Rd,ARCHIVED,05/06/2018 10:40:00 AM +0000
1E768A21723E530122240FA219BFF8C3365F40B2_1563146618,07/14/2019 11:23:38 PM +0000,Traffic Hazard,"(30.216722,-97.833927)",30.216721999999997,-97.833927,3500-3812 W William Cannon Dr,ARCHIVED,07/14/2019 11:55:03 PM +0000
929D4B9DCC22EAA58C8E7D9895B5AC0E901A220C_1574290548,11/20/2019 10:55:48 PM +0000,Traffic Hazard,"(30.325939,-97.726301)",30.325939,-97.726301,600-726 W Koenig Ln,ARCHIVED,11/20/2019 11:25:04 PM +0000
826AAE5B885CCF85B24973420339AB023B567B4E_1559734720,06/05/2019 11:38:40 AM +0000,COLLISION,"(30.08986,-97.734539)",30.089859999999998,-97.734539,12306-12315 Fm 1625 Rd,ARCHIVED,06/05/2019 12:00:07 PM +0000
28658E19C983F1DBD02CD4E94FC3EBE9BBB4F46B_1590666771,05/28/2020 11:52:51 AM +0000,Traffic Hazard,"(30.114892,-97.680637)",30.114891999999998,-97.680637,11189 Lambert Ln,ARCHIVED,05/28/2020 12:30:03 PM +0000
A81D67CA0535A2BE13D5E3C51E52B3B4E94D34DC_1643842099,02/02/2022 10:48:19 PM +0000,Traffic Hazard,"(30.271681,-97.697345)",30.271681,-97.697345,1143 Airport Blvd,ARCHIVED,02/03/2022 12:35:02 AM +0000
F29EC73A96F5925122FBD1B62F40315A3B85C911_1645368675,02/20/2022 02:51:15 PM +0000,Traffic Hazard,"(30.370329,-97.522455)",30.370328999999998,-97.52245500000001,STRATA RD & JAMIE DR,ARCHIVED,02/20/2022 04:35:03 PM +0000
96C71E10C9F797720254BF8AB512C22BEF680B46_1627910565,08/02/2021 01:22:45 PM +0000,Traffic Hazard,"(30.331694,-97.722724)",30.331694,-97.722724,6400-6541 N Lamar Blvd,ARCHIVED,08/02/2021 01:30:03 PM +0000
8E6AB7066425C5135386302C7741B2FD988D1FD0_1643115143,01/25/2022 12:52:23 PM +0000,COLLISION,"(30.152605,-97.767734)",30.152604999999998,-97.76773399999999,1700-1800 E Slaughter Ln,ARCHIVED,01/25/2022 01:20:03 PM +0000
1C90B882D4AC9C7D95D597BD8B37E3BFA36AEC00_1540503404,10/25/2018 09:36:44 PM +0000,Traffic Hazard,"(30.234061,-97.864779)",30.234060999999997,-97.864779,W William Cannon Dr & W Us 290 Hwy,ARCHIVED,10/25/2018 09:50:05 PM +0000
3738F2650C3885BEE794953D56A1E91A5516F93F_1533605678,08/07/2018 01:34:38 AM +0000,Traffic Hazard,"(30.389781,-97.744313)",30.389781,-97.744313,9527-9643 Research Blvd Svrd Nb,ARCHIVED,08/07/2018 02:35:03 AM +0000
0864A91883AB86909614F36A588EE81376A25C45_1550987036,02/24/2019 05:43:56 AM +0000,COLLISION,"(30.270394,-97.593518)",30.270394,-97.593518,5000-7475 N Sh 130 Nb,ARCHIVED,02/24/2019 06:40:03 AM +0000
1BDE811D408379BAD763800579CF2E7DD4D0131E_1548572460,01/27/2019 07:01:00 AM +0000,Traffic Hazard,"(30.233973,-97.866754)",30.233973,-97.866754,6602-6767 W Us 290 Hwy,ARCHIVED,01/27/2019 07:15:04 AM +0000
22578BD38EF7CE8C61CA0F4551751F7E861D015F_1524326627000,04/21/2018 04:03:00 PM +0000,Traffic Hazard,"(30.115807,-97.747804)",30.115807,-97.747804,11173 Old Lockhart Rd,ARCHIVED,04/21/2018 04:30:00 PM +0000
B5F55A9D15C6752E5D9DFD7336FFB008B403DC19_1523604079000,04/13/2018 07:21:00 AM +0000,Traffic Hazard,"(30.367932,-97.741919)",30.367932,-97.741919,Steck Ave & N Mopac Expy Svrd Nb,ARCHIVED,04/13/2018 08:30:00 AM +0000
1779E398E459464E06C5BC073DF31D628117B618_1558442636,05/21/2019 12:43:56 PM +0000,Traffic Hazard,"(30.371028,-97.750518)",30.371028000000003,-97.750518,8110-8117 Greenslope Dr,ARCHIVED,05/21/2019 02:00:06 PM +0000
9C664803E199AD40E55A2C29815BFF7C5C01BE58_1626734755,07/19/2021 10:45:55 PM +0000,COLLISION,"(30.482536,-97.851211)",30.482536,-97.85121099999999,ANDERSON MILL RD & RHAPSODY RIDGE DR,ARCHIVED,07/19/2021 11:30:03 PM +0000
BE2608CD9B0E64302FCB6170D889D6A11E1EBDD7_1622687043,06/03/2021 02:24:03 AM +0000,COLLISION,"(30.463369,-97.551034)",30.463369,-97.551034,19716-19815 Hodde Ln,ARCHIVED,06/03/2021 03:40:03 AM +0000
2A100E2577BD2530D28348706140A86FC8A29C95_1529041232,06/15/2018 05:40:32 AM +0000,COLLISION,"(30.445196,-97.74295)",30.445196000000003,-97.74295,6200-blk W Parmer Ln,ARCHIVED,06/15/2018 05:50:04 AM +0000
8A2A193948DF988A8B881A75CC050C55ABD1A1DE_1607041689,12/04/2020 12:28:09 AM +0000,COLLISION,"(30.545298,-97.864642)",30.545298,-97.864642,N Lakeline Blvd & Crystal Falls Pkwy,ARCHIVED,12/04/2020 12:35:03 AM +0000
6D04A668CCC2166D714A086DF60ACA8082ED8667_1607096759,12/04/2020 03:45:59 PM +0000,Traffic Hazard,"(30.511144,-97.911684)",30.511144,-97.911684,Fm 1431 Rd & Nameless Rd,ARCHIVED,12/04/2020 04:15:03 PM +0000
8B057F39D18E294235AB27685BD61815C856EAA6_1534644967,08/19/2018 02:16:07 AM +0000,COLLISION,"(30.143662,-97.804799)",30.143662,-97.804799,E Fm 1626 Rd & S 1st St,ARCHIVED,08/19/2018 02:30:02 AM +0000
C163BCD1CF90C984E9EDA4DBA311BCA369A7D1A1_1523605136000,04/13/2018 07:38:00 AM +0000,COLLISION,"(30.38591,-97.930138)",30.38591,-97.930138,2900-blk Noack Dr,ARCHIVED,04/13/2018 10:00:00 AM +0000
3DEFC7562611DA865D801E506DCA4F9DE6AAC674_1551601163,03/03/2019 08:19:23 AM +0000,Traffic Hazard,,0.0,0.0,Opening 6th,ARCHIVED,03/03/2019 08:40:04 AM +0000
88BC6A0EFDFDA3DDD001177E6317A7D44ECC5D81_1637603993,11/22/2021 05:59:53 PM +0000,Traffic Hazard,"(30.494739,-97.787694)",30.494739000000003,-97.78769399999999,14101-14127 Avery Ranch Blvd,ARCHIVED,11/22/2021 06:25:03 PM +0000
BC77B0705ECD0E9B1735332131C54C8EA571C491_1586367261,04/08/2020 05:34:21 PM +0000,Traffic Hazard,"(30.185085,-97.745304)",30.185084999999997,-97.745304,6114-6116 S Pleasant Valley Rd,ARCHIVED,04/08/2020 05:55:03 PM +0000
00E291CBC8578FFC4E7C365F0FF2594435A8981D_1512781512000,12/09/2017 01:05:00 AM +0000,Traffic Hazard,"(30.433578,-97.670844)",30.433578000000004,-97.67084399999999,14310-14314 N IH 35 SVRD SB,ARCHIVED,12/09/2017 01:15:00 AM +0000
F47DE373DC275D4AAE9591071D845541606A178D_1611237705,01/21/2021 02:01:45 PM +0000,COLLISION,"(30.125388,-97.819371)",30.125388,-97.81937099999999,12700-12709 MISSION RIVER DR,ARCHIVED,01/21/2021 03:00:02 PM +0000
0DCEDD9FF2B9E09E7BF85EEEC8CA731A3D606372_1624065319,06/19/2021 01:15:19 AM +0000,COLLISION,"(30.33001,-97.605356)",30.330009999999998,-97.605356,10127-10499 DECKER LN,ARCHIVED,06/19/2021 02:15:02 AM +0000
16A39286EB1BC47CBCC280AE068124E5A9661ABC_1595526941,07/23/2020 05:55:41 PM +0000,Traffic Hazard,"(30.279464,-97.72957)",30.279464,-97.72957,1900 N Ih 35 Sb,ARCHIVED,07/23/2020 07:45:04 PM +0000
251530028B2880D7CA8D1CB5C02FB745FBD66FF2_1522410690000,03/30/2018 11:51:00 AM +0000,COLLISION,"(30.481649,-97.55998)",30.481648999999997,-97.55998000000001,Rowe Ln & Martin Ln,ARCHIVED,03/30/2018 12:45:00 PM +0000
80D5B2A867B21E37CD472071370518DF40FA4F01_1530190872,06/28/2018 01:01:12 PM +0000,COLLISION,"(30.344963,-97.576001)",30.344963,-97.576001,10200-10257 E US 290 HWY SVRD EB,ARCHIVED,06/28/2018 01:15:03 PM +0000
D2B77EBA190F0947FEC6F4EA390E31488AE19D61_1542541948,11/18/2018 11:52:28 AM +0000,Traffic Hazard,"(30.338522,-97.692559)",30.338521999999998,-97.692559,Norwood Park Blvd & Clock Tower Dr,ARCHIVED,11/18/2018 01:40:03 PM +0000
EF9CB1ABFDB1D45BB08BD2742F179591C8266187_1533153318,08/01/2018 07:55:18 PM +0000,Traffic Hazard,"(30.347865,-97.712904)",30.347865000000002,-97.71290400000001,7836-7866 N Lamar Blvd Svrd Sb,ARCHIVED,08/01/2018 08:10:03 PM +0000
12F5AA9F4574E1267551B2B784C315C53E19903D_1610924048,01/17/2021 10:54:08 PM +0000,Traffic Hazard,"(30.315152,-97.657012)",30.315152,-97.657012,Pecan Brook Dr & Lazy Creek Dr,ARCHIVED,01/17/2021 11:15:03 PM +0000
AC91ED7AFECF7F65F94A1562B1298EC3619C438F_1569245328,09/23/2019 01:28:48 PM +0000,Traffic Hazard,"(30.275935,-97.667579)",30.275934999999997,-97.667579,3800-3951 Ed Bluestein Blvd Nb,ARCHIVED,09/23/2019 01:40:03 PM +0000
9D4EBBA60FD8D43C36E800C3239CECBE9A06419F_1614726010,03/02/2021 11:00:10 PM +0000,Traffic Hazard,"(30.226185,-97.769672)",30.226184999999997,-97.769672,S 1st St & W Ben White Blvd Svrd Eb,ARCHIVED,03/02/2021 11:50:03 PM +0000
F4647C599F9938F5990A0E45A9245A75C4C86950_1520526266000,03/08/2018 04:24:00 PM +0000,Traffic Hazard,"(30.411651,-97.541371)",30.411651000000003,-97.541371,16800-17024 Cameron Rd,ARCHIVED,03/08/2018 10:55:00 PM +0000
CC19B4E902F58637AF736A8393EFE79EF4829AAA_1584221165,03/14/2020 09:26:05 PM +0000,COLLISION,"(30.256997,-97.611818)",30.256997,-97.611818,Fm 969 Rd & N Fm 973 Rd,ARCHIVED,03/14/2020 10:55:03 PM +0000
1784F0E37C1FDD6200C1E8B28E8CAAE5402E74E0_1651976080,05/08/2022 02:14:40 AM +0000,Traffic Hazard,"(30.358616,-97.78706)",30.358615999999998,-97.78706,5510-5541 Fm 2222 Rd,ARCHIVED,05/08/2022 02:45:03 AM +0000
1D39AD587747B9C15F27B294438DD4145B2A79A9_1625421746,07/04/2021 06:02:26 PM +0000,COLLISION,"(30.353974,-97.591457)",30.353973999999997,-97.59145699999999,12000-12324 N SH 130 SB,ARCHIVED,07/04/2021 06:55:02 PM +0000
F19483C6A9FBACFEBFF05EB372439D8C0403745F_1580172336,01/28/2020 12:45:36 AM +0000,Traffic Hazard,"(30.187161,-97.855325)",30.187161,-97.855325,3900-4298 W Slaughter Ln,ARCHIVED,01/28/2020 01:20:05 AM +0000
DF8D8FCE31B05F9F7DA30CCD948575D6BAD9C0AB_1590336287,05/24/2020 04:04:47 PM +0000,Traffic Hazard,"(30.221822,-97.682918)",30.221821999999996,-97.682918,8287-8349 E Ben White Blvd Eb,ARCHIVED,05/24/2020 04:20:05 PM +0000
E1E2113D3105A4AB5E0052F7803AFC0D1079B55C_1532676414,07/27/2018 07:26:54 AM +0000,Traffic Hazard,"(30.152874,-97.670531)",30.152874,-97.67053100000001,S Fm 973 Rd & Fm 812 Rd,ARCHIVED,07/27/2018 07:40:02 AM +0000
50058BE44BCB8DBA457AB29E53B8D4D0AB1AF94A_1525379163000,05/03/2018 08:26:00 PM +0000,Traffic Hazard,"(30.207835,-97.75722)",30.207835,-97.75721999999999,4600-4798 S Ih 35 Svrd Sb,ARCHIVED,05/03/2018 08:45:00 PM +0000
F894D84CB8B7092D9E87AC778717959380745331_1622765745,06/04/2021 12:15:45 AM +0000,COLLISION,"(30.127971,-97.812396)",30.127971000000002,-97.81239599999999,12120-12427 Old San Antonio Rd,ARCHIVED,06/04/2021 02:15:03 AM +0000
31000790222225F0C2D33C517CBEF665AD601A4B_1510724943000,11/15/2017 05:49:00 AM +0000,Traffic Hazard,"(30.259096,-97.73721)",30.259096000000003,-97.73721,80-200 N IH 35 SB,ARCHIVED,11/15/2017 08:00:00 AM +0000
24FB6BC944CFE84ACB9EEC9F5A4C332C059725B1_1536304218,09/07/2018 07:10:18 AM +0000,COLLISION,"(30.444414,-97.667622)",30.444414000000002,-97.667622,15200 N IH 35 NB,ARCHIVED,09/07/2018 07:50:03 AM +0000
F673929B7AE05128DD473C556386A7B585483947_1602025416,10/06/2020 11:03:36 PM +0000,Traffic Hazard,"(30.343,-97.752717)",30.343000000000004,-97.752717,5900-6500 N Mopac Expy Sb,ARCHIVED,10/06/2020 11:15:04 PM +0000
026163C85E903E67F039F05E9A80218311817CF1_1530622340,07/03/2018 12:52:20 PM +0000,Traffic Hazard,"(30.364359,-97.684297)",30.364359000000004,-97.684297,10000 N IH 35 SB,ARCHIVED,07/03/2018 01:05:03 PM +0000
34810FCDC1F46D92A69CB6E76B055A856FDC5580_1537299984,09/18/2018 07:46:24 PM +0000,Traffic Hazard,"(30.344634,-97.706283)",30.344634000000003,-97.706283,200 W Anderson Ln Wb,ARCHIVED,09/18/2018 08:25:06 PM +0000
B039469E10CC32B9EB6AAEE8AABB64A15836746F_1548301016,01/24/2019 03:36:56 AM +0000,Traffic Hazard,"(30.36314,-97.697022)",30.36314,-97.697022,N Lamar Blvd & W Rundberg Ln,ARCHIVED,01/24/2019 03:55:03 AM +0000
B5507C7CA8CFA4C51B7C97843E5E4525ED1AD06D_1596236283,07/31/2020 10:58:03 PM +0000,Traffic Hazard,"(30.186291,-97.758464)",30.186290999999997,-97.758464,2400 E William Cannon Dr,ARCHIVED,07/31/2020 11:40:03 PM +0000
C41882F67AA8B3FFB5D98F51F530E7A189C779CE_1553001566,03/19/2019 01:19:26 PM +0000,Traffic Hazard,"(30.285309,-97.577465)",30.285309,-97.577465,7500-8113 N SH 130 NB,ARCHIVED,03/19/2019 01:40:04 PM +0000
1592AF7E76A7114B4F9BEEA0BE4746F59ADA13A6_1614985700,03/05/2021 11:08:20 PM +0000,Traffic Hazard,"(30.461422,-97.793564)",30.461422,-97.793564,10220-10225 Lake Creek Pkwy,ARCHIVED,03/06/2021 12:20:04 AM +0000
ED6938A0E411BB8E626DD202A335EF167A382A6C_1578353476,01/06/2020 11:31:16 PM +0000,Traffic Hazard,"(30.313464,-97.737571)",30.313464,-97.737571,N Lamar Blvd & W 45th St,ARCHIVED,01/06/2020 11:50:05 PM +0000
54FCE74DDD33DC3F1AC11D17CD8076A90BAF1F5E_1651862723,05/06/2022 06:45:23 PM +0000,Traffic Hazard,"(30.244959,-97.735037)",30.244959,-97.735037,1400 S Ih 35 Sb,ARCHIVED,05/06/2022 07:45:02 PM +0000
E3D9AAFDA317C05C755005FD30F6828BFFFAB6E1_1646425663,03/04/2022 08:27:43 PM +0000,Traffic Hazard,"(30.240452,-97.727292)",30.240452,-97.727292,2021 E Riverside Dr,ARCHIVED,03/04/2022 08:55:02 PM +0000
71D7909C7CC5E84074DE7372FE3DB3FBF25AA5AA_1644928780,02/15/2022 12:39:40 PM +0000,Traffic Hazard,"(30.343852,-97.580039)",30.343852000000002,-97.580039,9602-9624 E Parmer Ln,ARCHIVED,02/15/2022 02:50:03 PM +0000
BBFBF362460D2B5A1573BC939A7419DF3FFF1A54_1521277243000,03/17/2018 09:00:00 AM +0000,Traffic Hazard,"(30.229593,-97.788549)",30.229592999999998,-97.788549,4400-4430 Manchaca Rd,ARCHIVED,03/17/2018 02:15:00 PM +0000
22A433EB787A83F729240700DCFA9FA021D96AB4_1635331190,10/27/2021 10:39:50 AM +0000,Traffic Hazard,"(30.36683,-97.75725)",30.36683,-97.75725,3937 Myrick Dr,ARCHIVED,10/27/2021 12:20:03 PM +0000
B7CA5DF711D07BA6D03B6EF004402A6594C77CD6_1638125110,11/28/2021 06:45:10 PM +0000,Traffic Hazard,"(30.266807,-97.781389)",30.266807,-97.781389,0 S Mopac Sb At Wallingwood Trn,ARCHIVED,11/28/2021 07:20:04 PM +0000
7353E3051F54AAD2559A3C0AF3FD6B7476032D34_1538231066,09/29/2018 02:24:26 PM +0000,Traffic Hazard,"(30.233975,-97.865246)",30.233975,-97.865246,6602-6767 W Us 290 Hwy,ARCHIVED,09/29/2018 02:55:02 PM +0000
EC28361885EDEB63E1EFF30695CE51F8FD212465_1509673374000,11/03/2017 01:42:00 AM +0000,Traffic Hazard,"(30.278308,-97.641285)",30.278308000000003,-97.641285,8101 Fm 969 Rd,ARCHIVED,11/03/2017 01:55:00 AM +0000
FBB3A552565A0AD4F83608D8C45AD9D173C99DBB_1587744380,04/24/2020 04:06:20 PM +0000,Traffic Hazard,"(30.214342,-97.829986)",30.214342,-97.829986,6801-6907 Brodie Ln,ARCHIVED,04/24/2020 04:25:04 PM +0000
B9ADD70531519C256186579D20BC7CEC509B4BD3_1509482159000,10/31/2017 08:35:00 PM +0000,Traffic Hazard,"(30.263592,-97.763332)",30.263592,-97.76333199999999,1728 Barton Springs Rd,ARCHIVED,10/31/2017 10:00:00 PM +0000
A238EFA1E6BE785257FFA83915DC0E6EF13B355C,09/28/2017 07:42:00 AM +0000,Traffic Hazard,"(30.2214598,-97.6829926)",30.221459799999998,-97.68299259999999,1511-1811 S Us 183 Hwy Nb,ARCHIVED,05/18/2018 01:00:00 AM +0000
0CF1E822BDEEE81C31642D73DF2A5DB1ABCDB07A_1567780086,09/06/2019 02:28:06 PM +0000,COLLISION,"(30.148434,-97.659901)",30.148434,-97.659901,7400-7754 S Sh 130 Sb,ARCHIVED,09/06/2019 04:45:04 PM +0000
115131211F2F47272A27CF064775D461D3EF66E6_1565719678,08/13/2019 06:07:58 PM +0000,Traffic Hazard,"(30.247998,-97.804346)",30.247998,-97.804346,3500 S Mopac Expy Nb,ARCHIVED,08/13/2019 06:15:05 PM +0000
3E536CDE7E36C3398F011315FC5D7D2BEF1A5A56_1551898463,03/06/2019 06:54:23 PM +0000,Traffic Hazard,"(30.214877,-97.664034)",30.214877,-97.664034,0 Spirit Of Texas To 71 Eb Ramp,ARCHIVED,03/06/2019 09:20:06 PM +0000
CEF239141C378CC0998E5F526985C2D57C535D6C_1560127993,06/10/2019 12:53:13 AM +0000,Traffic Hazard,"(30.26494,-97.738939)",30.264940000000003,-97.738939,500 E 4th St,ARCHIVED,06/10/2019 01:25:03 AM +0000
B4E92E6FA003D2517E5BA33BF41DDCA75983E27C_1514263274000,12/26/2017 04:41:00 AM +0000,Traffic Hazard,"(30.210525,-97.541644)",30.210525,-97.54164399999999,2612 CALDWELL LN,ARCHIVED,12/26/2017 04:50:00 AM +0000
38CEED75E666B5A774724634CE0E292C05F35E17_1653341799,05/23/2022 09:36:39 PM +0000,Traffic Hazard,"(30.376566,-97.676475)",30.376565999999997,-97.676475,10900-11500 N Ih 35 Sb,ARCHIVED,05/23/2022 10:55:02 PM +0000
DC6034999593E7BA209A8125ACE188ECCB0790C4_1637003834,11/15/2021 07:17:14 PM +0000,COLLISION,"(30.222773,-97.633767)",30.222772999999997,-97.633767,S Fm 973 Rd & Green Grove Dr,ARCHIVED,11/15/2021 08:40:03 PM +0000
F4DB9F653097BF8D3145AD9071101C7295CABD05_1527686846000,05/30/2018 01:27:00 PM +0000,Traffic Hazard,"(30.24394,-97.755085)",30.243940000000002,-97.755085,Crockett St & Wilson St,ARCHIVED,05/30/2018 02:00:00 PM +0000
B610ABDBD67F70CB8B5A837F6AEB6E16531B4C7A_1615401869,03/10/2021 06:44:29 PM +0000,Traffic Hazard,"(30.34255,-97.763005)",30.34255,-97.763005,Fm 2222 Rd & Dry Creek Dr,ARCHIVED,03/10/2021 07:00:03 PM +0000
5BB246A3223A89C7FB9B2EED9A2EBDA82141406D_1508239465000,10/17/2017 11:24:00 AM +0000,Traffic Hazard,"(30.42073,-97.704266)",30.42073,-97.704266,12500 N Mopac Expy Sb,ARCHIVED,05/18/2018 01:00:00 AM +0000
C1766016F621182564FA46F30BAC4A76247A6F27_1613439339,02/16/2021 01:35:39 AM +0000,Traffic Hazard,"(30.167032,-97.784984)",30.167032,-97.784984,E Slaughter Ln & S Ih 35 Svrd Nb,ARCHIVED,02/16/2021 01:45:03 AM +0000
533958A2148AA8A3466FA3A8340D51E28294F41D_1530565743,07/02/2018 09:09:03 PM +0000,Traffic Hazard,"(30.243274,-97.755486)",30.243274,-97.755486,W Live Oak St & Wilson St,ARCHIVED,07/02/2018 09:40:03 PM +0000
3618330405CD5B4442F29655D0FD0538A8AEBF83_1536532575,09/09/2018 10:36:15 PM +0000,COLLISION,"(30.298567,-97.623247)",30.298567,-97.62324699999999,7300-blk DECKER LN,ARCHIVED,09/09/2018 11:05:03 PM +0000
246D2E34BEDEDFE76E09931A89BF4631F3916827_1545237598,12/19/2018 04:39:58 PM +0000,Traffic Hazard,"(30.261612,-97.774046)",30.261612,-97.774046,1221 Barton Hills Dr,ARCHIVED,12/19/2018 07:10:03 PM +0000
B02B25076199964BB7439541DFD797C0397ED4C0_1581089003,02/07/2020 03:23:23 PM +0000,Traffic Hazard,"(30.316496,-97.949386)",30.316496,-97.949386,13000-13540 BEE CAVE PKWY,ARCHIVED,02/07/2020 03:30:04 PM +0000
F30D26B7A985306EEEE2C464D4E59E8A7C1F8DDE_1523525634000,04/12/2018 09:33:00 AM +0000,Traffic Hazard,"(30.13236,-97.735617)",30.13236,-97.735617,9000-10423 Thaxton Rd,ARCHIVED,04/12/2018 09:55:00 AM +0000
7CB3F42379DF52FB7C22A44C27399C3177BD99D2_1543698681,12/01/2018 09:11:21 PM +0000,Traffic Hazard,"(30.374116,-97.727614)",30.374115999999997,-97.727614,9057-9101 Research Blvd Svrd Nb,ARCHIVED,12/01/2018 10:00:04 PM +0000
DEE280AB1D93172B099C842F680A8E40E389C4C6_1523790302000,04/15/2018 11:05:00 AM +0000,COLLISION,"(30.349292,-97.538573)",30.349292,-97.538573,E US 290 HWY EB & N FM 973 RD,ARCHIVED,04/15/2018 11:40:00 AM +0000
BC50A6ED0F0272903A1AC5DC2349AA1E49DFB5FC_1649789735,04/12/2022 06:55:35 PM +0000,Traffic Hazard,"(30.24025,-97.72704)",30.24025,-97.72704,E Riverside Dr & Burton Dr,ARCHIVED,04/12/2022 07:25:03 PM +0000
24FB6BC944CFE84ACB9EEC9F5A4C332C059725B1_1524016190000,04/18/2018 01:49:00 AM +0000,Traffic Hazard,"(30.525862,-97.955747)",30.525862,-97.955747,Long Hill Dr & Crossover Ln,ARCHIVED,04/18/2018 02:30:00 AM +0000
515A0309707C73B79EB01BAA31A500059F90A6B9_1557770508,05/13/2019 06:01:48 PM +0000,Traffic Hazard,"(30.153267,-97.833266)",30.153267,-97.83326600000001,11501 Menchaca Rd,ARCHIVED,05/13/2019 06:20:05 PM +0000
59C1C577A1380A9058D9CF86DB4E0AEA6A314988_1646541571,03/06/2022 04:39:31 AM +0000,Traffic Hazard,"(30.335714,-97.607952)",30.335714000000003,-97.607952,10600-10664 Harris Branch Pkwy,ARCHIVED,03/06/2022 05:20:05 AM +0000
DAE5FD66A9257B4F6461079F24D43322E5D86662_1595336328,07/21/2020 12:58:48 PM +0000,Traffic Hazard,"(30.209001,-97.783835)",30.209001,-97.783835,Nancy Dr & W Stassney Ln,ARCHIVED,07/21/2020 01:15:03 PM +0000
00DC35710D10349FA58F9D679882587A0D70C16A_1604275854,11/02/2020 12:10:54 AM +0000,COLLISION,"(30.436247,-97.87616)",30.436246999999998,-97.87616,14000-blk FM 2769 RD,ARCHIVED,11/02/2020 12:40:04 AM +0000
FE5FE4AF3281EC07715498F052A7350C26C151C0_1531437028,07/12/2018 11:10:28 PM +0000,Traffic Hazard,"(30.260995,-97.735784)",30.260995,-97.735784,N Ih 35 Svrd Nb & E Cesar Chavez St,ARCHIVED,07/12/2018 11:35:03 PM +0000
8710BCA93219049B5D36136FD05D626A930BD773_1516197492000,01/17/2018 01:58:00 PM +0000,Traffic Hazard,"(30.265287,-97.747672)",30.265287,-97.747672,Guadalupe St & W 2nd St,ARCHIVED,01/17/2018 08:45:00 PM +0000
765BB5D5E39445C7F56B5554B9BA0D431132F818_1524740828000,04/26/2018 11:07:00 AM +0000,Traffic Hazard,"(30.389518,-97.74591)",30.389518,-97.74591,9800-9832 Research Blvd Svrd Sb,,04/26/2018 11:10:00 AM +0000
09579C1001A01217326658A67CF8329AB41EDB97_1557441153,05/09/2019 10:32:33 PM +0000,COLLISION,"(30.348861,-97.555963)",30.348861,-97.555963,E US 290 HWY EB & LEXINGTON ST,ARCHIVED,05/09/2019 11:05:03 PM +0000
9EE516E1256422B2C7CD0402CAD219A36F7E7723_1624899392,06/28/2021 04:56:32 PM +0000,Traffic Hazard,"(30.153953,-97.639737)",30.153953,-97.639737,HEINE FARM RD & ELROY RD,ARCHIVED,06/28/2021 05:35:03 PM +0000
4EC9F4EB1CF064513747B5E058DD05F3F6D6B737_1634557122,10/18/2021 11:38:42 AM +0000,COLLISION,"(30.266937,-97.625525)",30.266937,-97.625525,10003 Fm 969 Rd,ARCHIVED,10/18/2021 12:40:03 PM +0000
F4807E7BC0AB85A61203B6E384806EFEB08177AF_1544759027,12/14/2018 03:43:47 AM +0000,Traffic Hazard,"(30.335201,-97.680512)",30.335201,-97.680512,Rutherford Ln & Centre Creek Dr,ARCHIVED,12/14/2018 04:40:03 AM +0000
0A8FD3E9944C54C4399A005554DCC4F33405A363_1574293517,11/20/2019 11:45:17 PM +0000,Traffic Hazard,"(30.276817,-97.768506)",30.276816999999998,-97.768506,0 W 6th Wb To Lake Austin Ramp,ARCHIVED,11/21/2019 12:40:03 AM +0000
97B0FD2F9B2C4E92174719458B283189C944E15B_1600719072,09/21/2020 08:11:12 PM +0000,Traffic Hazard,"(30.167677,-97.688752)",30.167677,-97.68875200000001,8612 Hillmoore Dr,ARCHIVED,09/21/2020 08:40:05 PM +0000
AA4D91CE2E5A36BB7D4BFC5C70DE0C6B781C3D1F_1611964140,01/29/2021 11:49:00 PM +0000,COLLISION,"(30.256997,-97.611818)",30.256997,-97.611818,11600-12225 FM 969 RD,ARCHIVED,01/30/2021 01:15:02 AM +0000
F7BD9AC6946900FC1D9EF166B78449710E65900C_1524396966000,04/22/2018 11:36:00 AM +0000,COLLISION,"(30.231569,-97.819083)",30.231569,-97.81908299999999,5200 Brodie Ln,ARCHIVED,04/22/2018 02:15:00 PM +0000
1BDE811D408379BAD763800579CF2E7DD4D0131E_1582807815,02/27/2020 12:50:15 PM +0000,COLLISION,"(30.163218,-97.725832)",30.163218,-97.725832,Mc Kinney Falls Pkwy & E William Cannon Dr,ARCHIVED,02/27/2020 01:10:03 PM +0000
7582EAE4A80C6CCA12C496ED9C3CBB84C4E14A35,09/29/2017 12:34:00 AM +0000,COLLISION,"(30.4502613,-97.7477245)",30.4502613,-97.7477245,6901-7125 E Parmer Ln,ARCHIVED,05/18/2018 01:00:00 AM +0000
156245AC1E58565735CE56D1AD261D214D59ABC4_1621539425,05/20/2021 07:37:05 PM +0000,Traffic Hazard,"(30.297978,-97.687117)",30.297978000000004,-97.687117,5000-5033 MANOR RD,ARCHIVED,05/20/2021 08:25:03 PM +0000
C61211674FD03175FEC87A9C01F39F72376CE104_1577656072,12/29/2019 09:47:52 PM +0000,COLLISION,"(30.246139,-97.61093)",30.246139000000003,-97.61093000000001,3600-4524 N Sh 130 Sb,ARCHIVED,12/29/2019 10:05:03 PM +0000
FBB3A552565A0AD4F83608D8C45AD9D173C99DBB_1605318559,11/14/2020 01:49:19 AM +0000,COLLISION,"(30.413958,-97.633021)",30.413958,-97.633021,DESSAU RD & TUDOR HOUSE RD,ARCHIVED,11/14/2020 02:45:03 AM +0000
3080EDC43095A62CA115FB1E030B1C71D54F59F1_1521107152000,03/15/2018 09:45:00 AM +0000,Traffic Hazard,"(30.172202,-97.752259)",30.172202000000002,-97.752259,Quicksilver Blvd & S Pleasant Valley Rd,ARCHIVED,03/15/2018 03:05:00 PM +0000
E194EE413805BA5A6AABF4D34DB2066149DC0369_1565978681,08/16/2019 06:04:41 PM +0000,Traffic Hazard,"(30.264824,-97.749674)",30.264824,-97.749674,500-517 W Cesar Chavez St,ARCHIVED,08/16/2019 06:25:03 PM +0000
06B43948EF431B5FADEA95A968E2DB037428F1D3_1628990209,08/15/2021 01:16:49 AM +0000,Traffic Hazard,"(30.235232,-97.739893)",30.235232,-97.73989300000001,0 S Ih 35 Nb To Woodland Ramp,ARCHIVED,08/15/2021 02:20:03 AM +0000
ADB38019446C733C064840E350C72C0A9FA975CB_1577553273,12/28/2019 05:14:33 PM +0000,Traffic Hazard,"(30.219011,-97.807129)",30.219011,-97.807129,West Gate Blvd & W Stassney Ln,ARCHIVED,12/28/2019 05:25:04 PM +0000
ADABAF1DC5B7F34B10D06F9F8D60E7204053A7C1_1593383863,06/28/2020 10:37:43 PM +0000,Traffic Hazard,"(30.142876,-97.616548)",30.142876,-97.616548,7762-7940 Elroy Rd,ARCHIVED,06/28/2020 10:55:03 PM +0000
66C9001ED3D7697B23819BF3B9EFBD504E52389D_1561137650,06/21/2019 05:20:50 PM +0000,Traffic Hazard,"(30.173724,-97.823807)",30.173724,-97.82380699999999,Menchaca Rd & W Slaughter Ln,ARCHIVED,06/21/2019 05:40:04 PM +0000
EF9CB1ABFDB1D45BB08BD2742F179591C8266187_1523460620000,04/11/2018 03:30:00 PM +0000,Traffic Hazard,"(30.363135,-97.717797)",30.363134999999996,-97.71779699999999,Ohlen Rd & Research Blvd Svrd Sb,ARCHIVED,04/11/2018 04:50:00 PM +0000
070DAFCB55881E67B7FCE04CFB94FAA33639B865_1638230286,11/29/2021 11:58:06 PM +0000,Traffic Hazard,"(30.351737,-97.748896)",30.351737,-97.748896,3300-3309 Far West Blvd,ARCHIVED,11/30/2021 12:50:03 AM +0000
026163C85E903E67F039F05E9A80218311817CF1_1524334181000,04/21/2018 06:09:00 PM +0000,COLLISION,"(30.266762,-97.625368)",30.266762,-97.62536800000001,Fm 969 Rd & Imperial Dr,ARCHIVED,04/21/2018 06:40:00 PM +0000
02EFB6CDABCF363D66DA0FC33416F45873AC7D57_1621577015,05/21/2021 06:03:35 AM +0000,Traffic Hazard,"(30.35684,-97.689498)",30.356840000000002,-97.689498,9200 N IH 35 SVRD SB,ARCHIVED,05/21/2021 08:30:03 AM +0000
36DFF9576BEF9EE98BAB32687C12CC9DC6536114_1613513947,02/16/2021 10:19:07 PM +0000,Traffic Hazard,"(30.338113,-97.676469)",30.338113,-97.676469,Cross Park Dr & Wall St,ARCHIVED,02/17/2021 12:25:03 AM +0000
06072EB4F0454CBD924930E1FD2F06787E77D416_1577419906,12/27/2019 04:11:46 AM +0000,COLLISION,"(30.223306,-97.89518)",30.223306,-97.89518000000001,HIGH VALLEY RD & SUMMERVALE DR,ARCHIVED,12/27/2019 04:35:05 AM +0000
1B268018FE7300CE41C5413E41DD1A18B7726BF4_1538188597,09/29/2018 02:36:37 AM +0000,Traffic Hazard,"(30.333714,-97.689288)",30.333714,-97.689288,1000-2409 E Anderson Ln Eb,ARCHIVED,09/29/2018 02:55:02 AM +0000
2185EEAE0B746393E7C71EC27AD3763D60A2F37F_1509623556000,11/02/2017 11:52:00 AM +0000,Traffic Hazard,"(30.360802,-97.715074)",30.360802000000003,-97.715074,Remington Ln & Fairfield Dr,ARCHIVED,11/02/2017 12:25:00 PM +0000
B852035718A45A6479B38C26FA96B28B0C9A8A56_1593223121,06/27/2020 01:58:41 AM +0000,Traffic Hazard,"(30.51881,-97.9024)",30.51881,-97.9024,18043-18057 FM 1431 RD,ARCHIVED,06/27/2020 02:05:03 AM +0000
F30D26B7A985306EEEE2C464D4E59E8A7C1F8DDE_1552397847,03/12/2019 01:37:27 PM +0000,COLLISION,"(30.36134,-98.069116)",30.361340000000002,-98.06911600000001,21700-21721 W Sh 71,ARCHIVED,03/12/2019 02:25:05 PM +0000
434F87C79F3D0B34DC659B9009F34134552BCC22_1649876239,04/13/2022 06:57:19 PM +0000,Traffic Hazard,"(30.307801,-97.751601)",30.307801,-97.75160100000001,W 35th St & Jefferson St,ARCHIVED,04/13/2022 08:25:03 PM +0000
53B43ADA41A9083EFA9B04AD10970C2B494633F1_1528444639000,06/08/2018 07:57:00 AM +0000,Traffic Hazard,"(30.305707,-97.712923)",30.305707,-97.712923,4700 N IH 35 SB,ARCHIVED,06/08/2018 08:55:00 AM +0000
84CBB8CB3AAA7A5A5F98AB30B5B0C948CCA74F93_1533770322,08/08/2018 11:18:42 PM +0000,Traffic Hazard,"(30.221131,-97.684992)",30.221131,-97.68499200000001,8200-8285 E Ben White Blvd Eb,ARCHIVED,08/09/2018 04:45:02 AM +0000
ADABAF1DC5B7F34B10D06F9F8D60E7204053A7C1_1654348089,06/04/2022 01:08:09 PM +0000,Traffic Hazard,"(30.374298,-97.728535)",30.374298,-97.728535,9011-9099 Research Blvd Nb,ARCHIVED,06/04/2022 01:15:02 PM +0000
ADFB3113F827A8F0E2C41436C49511B2F5466B47_1514370162000,12/27/2017 10:22:00 AM +0000,Traffic Hazard,"(30.359142,-97.788879)",30.359142,-97.78887900000001,5700-5720 Fm 2222 Rd,ARCHIVED,12/27/2017 10:45:00 AM +0000
731505E34829883E122EED58FCA8260CAF53AB98_1537462243,09/20/2018 04:50:43 PM +0000,Traffic Hazard,"(30.21198,-97.712537)",30.21198,-97.712537,3100 Montopolis Dr,ARCHIVED,09/20/2018 08:40:04 PM +0000
ED44F03C79AE6FC90AD415E4F1DE7E5308DB9FBD_1559344748,05/31/2019 11:19:08 PM +0000,COLLISION,"(30.50467,-97.911829)",30.50467,-97.911829,MEDINA VISTA LN & PECAN DR,ARCHIVED,05/31/2019 11:30:04 PM +0000
442BDC9A0E80132C626A3605E010B8FB0EE0C1F6_1630636058,09/03/2021 02:27:38 AM +0000,Traffic Hazard,"(30.266425,-97.740693)",30.266425,-97.74069300000001,301 E 5th St,ARCHIVED,09/03/2021 02:45:03 AM +0000
95576B444F9B7CD177F41A9D24EEC0BA4EBF8C49_1570372238,10/06/2019 02:30:38 PM +0000,COLLISION,"(30.289674,-97.82791)",30.289673999999998,-97.82791,800-899 S CAPITAL OF TEXAS HWY NB,ARCHIVED,10/06/2019 02:40:04 PM +0000
183723726A927563AD46963F2138CC147D04CEA0_1599254100,09/04/2020 09:15:00 PM +0000,Traffic Hazard,"(30.156538,-97.853328)",30.156538,-97.853328,2820 Yandall Dr,ARCHIVED,09/04/2020 09:45:03 PM +0000
2192F9498F37E8D5F2BBA41585B5C7ED4D0DB457_1544066955,12/06/2018 03:29:15 AM +0000,COLLISION,"(30.349212,-97.535556)",30.349211999999998,-97.535556,12300 E Us 290 Hwy Eb,ARCHIVED,12/06/2018 03:40:03 AM +0000
28242F1D302696F577218BB85FBAAFECA44761A7_1528619059000,06/10/2018 08:24:00 AM +0000,Traffic Hazard,"(30.172439,-97.721781)",30.172439,-97.72178100000001,7058-8109 DEE GABRIEL COLLINS RD,ARCHIVED,06/10/2018 08:40:00 AM +0000
C51924F09B7A115683511FD1FC4A3F9F058103C3_1583499378,03/06/2020 12:56:18 PM +0000,COLLISION,"(30.439346,-98.100582)",30.439346,-98.10058199999999,100-521 N Paleface Ranch Rd,ARCHIVED,03/06/2020 02:45:03 PM +0000
7A7EA1512BC5014FD1B25FF389938BC75D25315D_1527800860000,05/31/2018 09:07:00 PM +0000,Traffic Hazard,"(30.484855,-97.80435)",30.484855,-97.80435,0 Lakeline Blvd To 183a Nb Ramp,ARCHIVED,05/31/2018 09:30:00 PM +0000
817965431C04A46F3AF2F982CEFF704A9CD0890B_1538650936,10/04/2018 11:02:16 AM +0000,COLLISION,"(30.466089,-97.548377)",30.466089,-97.548377,20100-blk Hodde Ln,ARCHIVED,10/04/2018 12:25:05 PM +0000
C54222A1F817B742F6FA1D156F5B4CCC3D93D0B4_1586715394,04/12/2020 06:16:34 PM +0000,Traffic Hazard,"(30.297867,-97.828129)",30.297867,-97.828129,S Cap Tx Sb To 2244 Ramp & S Capital Of Texas Hwy Sb,ARCHIVED,04/12/2020 07:15:05 PM +0000
B7CCD06EAE4373F089148CA12686DAE18E47697B_1515923681000,01/14/2018 09:54:00 AM +0000,COLLISION,"(30.300595,-97.839102)",30.300595,-97.839102,6900-blk Fm 2244 Rd,ARCHIVED,01/14/2018 04:30:00 PM +0000
E1687F7478020253F747B6F9BAF48D571471B18C_1653222239,05/22/2022 12:23:59 PM +0000,Traffic Hazard,"(30.182364,-97.745816)",30.182364,-97.745816,S Pleasant Valley Rd & Creek Bend Dr,ARCHIVED,05/22/2022 01:20:03 PM +0000
2314A350E505EC7C79579F94AD8C46B42631A2E8_1613943417,02/21/2021 09:36:57 PM +0000,Traffic Hazard,"(30.213333,-97.753967)",30.213333000000002,-97.753967,S Ih 35 Svrd Sb & E St Elmo Rd,ARCHIVED,02/21/2021 09:55:03 PM +0000
1D39AD587747B9C15F27B294438DD4145B2A79A9_1575894119,12/09/2019 12:21:59 PM +0000,Traffic Hazard,"(30.288586,-97.66403)",30.288586,-97.66403000000001,5200-5219 Ed Bluestein Blvd Svrd Nb,ARCHIVED,12/09/2019 01:00:06 PM +0000
99DBAF29F2C835CC4DFB0FC794B4B9ABDC8E2A66_1621858764,05/24/2021 12:19:24 PM +0000,COLLISION,"(30.478049,-97.731632)",30.478049,-97.73163199999999,3500-3600 N SH 45 W EB,ARCHIVED,05/24/2021 12:35:03 PM +0000
B5AFBB263F5617EAEF5523F5DDC8831C9EEA7609_1522661701000,04/02/2018 09:35:00 AM +0000,Traffic Hazard,"(30.119791,-97.59408)",30.119790999999996,-97.59408,16500-blk JACOBSON RD,ARCHIVED,04/02/2018 11:00:00 AM +0000
E00D88521A615B882FC19538C2FC45B8BA19C43D_1614205243,02/24/2021 10:20:43 PM +0000,Traffic Hazard,"(30.392347,-97.725626)",30.392346999999997,-97.725626,Burnet Rd & W Braker Ln,ARCHIVED,02/24/2021 10:55:03 PM +0000
5B48D88A19941E3F151D49ECD72B30B650EA917A_1580492967,01/31/2020 05:49:27 PM +0000,Traffic Hazard,"(30.167197,-97.790934)",30.167196999999998,-97.790934,W Slaughter Ln & Cullen Ln,ARCHIVED,01/31/2020 06:30:06 PM +0000
A0C3CD9E41D288D91A6651CFC2B768DF5E86B175_1559489509,06/02/2019 03:31:49 PM +0000,Traffic Hazard,"(30.258362,-97.749908)",30.258361999999998,-97.74990799999999,500 Barton Springs Rd,ARCHIVED,06/02/2019 03:45:04 PM +0000
64FDF750523380C3B4B5F7C242014FC3C2EE0777_1575132355,11/30/2019 04:45:55 PM +0000,Traffic Hazard,"(30.223017,-97.684699)",30.223017,-97.684699,Airport Commerce Dr & E Ben White Blvd Svrd Wb,ARCHIVED,11/30/2019 05:30:04 PM +0000
066B5BB7A384BED2EDCDC65D0BCAA57C1EE971D0_1654203804,06/02/2022 09:03:24 PM +0000,Traffic Hazard,"(30.37833,-97.504227)",30.37833,-97.504227,12910 JOHNSON RD,ARCHIVED,06/02/2022 11:55:02 PM +0000
DA5EB7821DBF976B4784D1D020866EBE07542FC0_1607348124,12/07/2020 01:35:24 PM +0000,Traffic Hazard,"(30.276619,-97.667982)",30.276619,-97.667982,4300 Ed Bluestein Blvd Sb,ARCHIVED,12/07/2020 02:30:03 PM +0000
510DB8CCD12118CF88A7C860B741BD61530AEF0C_1508844275000,10/24/2017 11:24:00 AM +0000,Traffic Hazard,"(30.368929,-97.719088)",30.368928999999998,-97.719088,8817-9009 Research Blvd Nb,ARCHIVED,05/18/2018 01:00:00 AM +0000
30C7F38CFAC4993FB952CB0919DC36471D0B1F6F_1597871337,08/19/2020 09:08:57 PM +0000,COLLISION,"(30.349177,-97.537801)",30.349177,-97.537801,12100-12205 E Us 290 Hwy Eb,ARCHIVED,08/19/2020 09:30:04 PM +0000
189EE872D4D83256175DD2E108E01A9FE9AE27BD_1563930533,07/24/2019 01:08:53 AM +0000,Traffic Hazard,"(30.36314,-97.697022)",30.36314,-97.697022,N Lamar Blvd & W Rundberg Ln,ARCHIVED,07/24/2019 01:40:05 AM +0000
9BB8E0950F90AD2C86D71227775862A63BB50C03_1559789958,06/06/2019 02:59:18 AM +0000,Traffic Hazard,"(30.172933,-97.824079)",30.172933,-97.824079,9900-9948 Menchaca Rd,ARCHIVED,06/06/2019 03:25:03 AM +0000
BC7D28A99C80767AE5DD0EB7EF058F68D053FB60_1592400472,06/17/2020 01:27:52 PM +0000,Traffic Hazard,"(30.140584,-97.828504)",30.140584000000004,-97.82850400000001,W FM 1626 RD & TWIN CREEKS RD,ARCHIVED,06/17/2020 01:50:04 PM +0000
CC6F6EDE7B271915DBA0F43119E441804A648724_1583958884,03/11/2020 08:34:44 PM +0000,Traffic Hazard,"(30.328533,-97.713)",30.328533,-97.713,E Highland Mall Blvd & Jonathan Dr,ARCHIVED,03/11/2020 09:00:04 PM +0000
2C8041ADCD90153AF5180E4C18E22C3B161C25E8_1566946480,08/27/2019 10:54:40 PM +0000,Traffic Hazard,"(30.398621,-97.731222)",30.398621000000002,-97.731222,10800 N Mopac Expy Nb,ARCHIVED,08/27/2019 11:20:05 PM +0000
0C4E6389BA7066F691E6C5AAA754C167FBB870F8_1587762073,04/24/2020 09:01:13 PM +0000,Traffic Hazard,"(30.282159,-97.485904)",30.282159000000004,-97.485904,Damita Jo Dr & Trappers Trl,ARCHIVED,04/24/2020 09:10:03 PM +0000
B7CA5DF711D07BA6D03B6EF004402A6594C77CD6_1536718532,09/12/2018 02:15:32 AM +0000,Traffic Hazard,"(30.13352,-97.8238)",30.13352,-97.8238,12400-blk TWIN CREEK DR,ARCHIVED,09/12/2018 03:10:02 AM +0000
FF17B1B381C67D36E520787D6B2FAE6F68421417_1558798806,05/25/2019 03:40:06 PM +0000,Traffic Hazard,"(30.229636,-97.788522)",30.229636,-97.788522,W Ben White Blvd Svrd Eb & Menchaca Rd,ARCHIVED,05/25/2019 05:00:06 PM +0000
0103B8C397F0C92E47D9D803B50740B2C6B015C3_1534780197,08/20/2018 03:49:57 PM +0000,Traffic Hazard,"(30.198299,-97.684115)",30.198299,-97.684115,Mc Kinney Falls Pkwy & S Us 183 Hwy Sb,ARCHIVED,08/20/2018 04:00:02 PM +0000
7161A2409087E392CF68559DDAC9F1B64B07510C_1607388728,12/08/2020 12:52:08 AM +0000,Traffic Hazard,"(30.475253,-97.811108)",30.475253000000002,-97.81110799999999,2701-2737 S Lakeline Blvd,ARCHIVED,12/08/2020 01:10:04 AM +0000
AA4D91CE2E5A36BB7D4BFC5C70DE0C6B781C3D1F_1647040486,03/11/2022 11:14:46 PM +0000,COLLISION,"(30.445106,-97.711642)",30.445106,-97.711642,4704-4921 W Howard Ln,ARCHIVED,03/11/2022 11:25:03 PM +0000
DC4DD44D3465997A4A04FD070DF0BF24B75F9CFF_1644410281,02/09/2022 12:38:01 PM +0000,COLLISION,"(30.09002,-97.734513)",30.090020000000003,-97.734513,Fm 1625 Rd & Fm 1327 Rd,ARCHIVED,02/09/2022 02:05:02 PM +0000
B949F95479E0CB8E73A521EC6135BA1CD766D865_1635271567,10/26/2021 06:06:07 PM +0000,COLLISION,"(30.219936,-97.635554)",30.219935999999997,-97.635554,1801-1925 S FM 973 RD,ARCHIVED,10/26/2021 06:15:02 PM +0000
3259CB20A537C3539F365141FA16B8651163F575_1583328793,03/04/2020 01:33:13 PM +0000,Traffic Hazard,"(30.358564,-97.688306)",30.358564,-97.68830600000001,0 N Ih 35 Sb At E Rundberg Trn,ARCHIVED,03/04/2020 03:00:06 PM +0000
A115E35A62282CE8927B9BF6B0D4261FDA07051C_1549169281,02/03/2019 04:48:01 AM +0000,Traffic Hazard,"(30.282441,-97.704703)",30.282441,-97.70470300000001,3000-3023 E MARTIN LUTHER KING JR BLVD,ARCHIVED,02/03/2019 05:00:06 AM +0000
53EB8055CF041753B3A43D89F2B9503C9BA333E1_1528083433000,06/04/2018 03:37:00 AM +0000,Traffic Hazard,"(30.29937,-97.646248)",30.29937,-97.646248,6506-6714 Loyola Ln,ARCHIVED,06/04/2018 04:20:00 AM +0000
24558D69E07EDE276480AE38B27EBCC720E09407_1566881550,08/27/2019 04:52:30 AM +0000,COLLISION,"(30.190674,-97.620203)",30.190673999999998,-97.620203,4200-4332 E Sh 71 Eb,ARCHIVED,08/27/2019 05:15:04 AM +0000
AD7BDA08A65F123EB4F5091D80AE8CA9339AEE6E_1574113298,11/18/2019 09:41:38 PM +0000,Traffic Hazard,"(30.429748,-97.701552)",30.429747999999996,-97.701552,13100-13148 Burnet Rd,ARCHIVED,11/18/2019 10:15:05 PM +0000
AC91ED7AFECF7F65F94A1562B1298EC3619C438F_1540993905,10/31/2018 01:51:45 PM +0000,Traffic Hazard,"(30.227318,-97.773388)",30.227318,-97.773388,James Casey St & W Ben White Blvd Svrd Eb,ARCHIVED,10/31/2018 02:10:03 PM +0000
52ACC1E71086DA5229CB59A80D1EDBFE9A1A7C25_1534389347,08/16/2018 03:15:47 AM +0000,Traffic Hazard,"(30.371234,-97.66674)",30.371234,-97.66674,11100-11218 DESSAU RD,ARCHIVED,08/16/2018 03:30:02 AM +0000
474C2648302BEC1C0561BB62F769F3D4D8A1FB90_1636225588,11/06/2021 07:06:28 PM +0000,COLLISION,"(30.352189,-97.591543)",30.352189000000003,-97.591543,12100-12325 N Sh 130 Svrd Nb,ARCHIVED,11/06/2021 07:15:03 PM +0000
B5F55A9D15C6752E5D9DFD7336FFB008B403DC19_1525078917000,04/30/2018 09:01:00 AM +0000,Traffic Hazard,"(30.235507,-97.763834)",30.235507000000002,-97.763834,S 1st St & Terrell Hill Dr,,04/30/2018 09:05:00 AM +0000
30ADB4DE4D8E9ECDD52FAE4FCA6EB253E2AA53F1_1651009077,04/26/2022 09:37:57 PM +0000,Traffic Hazard,"(30.35727,-97.561341)",30.35727,-97.561341,12900 Gregg Manor Rd,ARCHIVED,04/26/2022 10:05:02 PM +0000
9C664803E199AD40E55A2C29815BFF7C5C01BE58_1570544630,10/08/2019 02:23:50 PM +0000,Traffic Hazard,"(30.365831,-97.797483)",30.365831,-97.797483,CITY PARK RD & FM 2222 RD,ARCHIVED,10/08/2019 02:55:04 PM +0000
1F62B8ED2C054CF3BAB71F1B52CA8AEE33B4CF82_1652128833,05/09/2022 08:40:33 PM +0000,Traffic Hazard,"(30.197798,-97.789534)",30.197798,-97.789534,739 W WILLIAM CANNON DR,ARCHIVED,05/09/2022 09:40:03 PM +0000
B5AA3C061DD7CC6FFEBB32E8AF615EE74BCAB62F_1518876157000,02/17/2018 02:02:00 PM +0000,Traffic Hazard,"(30.280438,-97.717271)",30.280438,-97.717271,E Martin Luther King Jr Blvd & Chestnut Ave,ARCHIVED,02/17/2018 10:45:00 PM +0000
0103B8C397F0C92E47D9D803B50740B2C6B015C3_1592151435,06/14/2020 04:17:15 PM +0000,Traffic Hazard,"(30.327305,-97.665306)",30.327305,-97.665306,0 E US 290 EB TO TUSCANY RAMP,ARCHIVED,06/14/2020 05:20:04 PM +0000
295B34E196D4A5637E47907A4A8A4E8B3D79B22E_1604149390,10/31/2020 01:03:10 PM +0000,Traffic Hazard,"(30.349871,-97.749239)",30.349871000000004,-97.749239,6700-7127 N Mopac Expy Nb,ARCHIVED,10/31/2020 03:00:04 PM +0000
480619EF8900E4598B0C8148FFE0192C0B284F2D_1543627413,12/01/2018 01:23:33 AM +0000,Traffic Hazard,"(30.388605,-97.74793)",30.388605,-97.74793000000001,9500-9531 N Capital Of Texas Hwy Nb,ARCHIVED,12/01/2018 02:30:03 AM +0000
7FCDB7BA6DE74B6E007EFE1079540E0228817D26_1607652991,12/11/2020 02:16:31 AM +0000,Traffic Hazard,"(30.29084,-97.828285)",30.290840000000003,-97.828285,S Capital Of Texas Hwy Sb & Las Cimas Pkwy,ARCHIVED,12/11/2020 03:20:04 AM +0000
8CB4EC6F85EDB9D735A0B4F9D9CBC2884DE0F50D_1632023569,09/19/2021 03:52:49 AM +0000,COLLISION,"(30.345061,-97.575571)",30.345060999999998,-97.575571,10200-10257 E Us 290 Hwy Svrd Eb,ARCHIVED,09/19/2021 05:00:03 AM +0000
8CBC3E572CC892F03DC08C8EE359C71AAB846DB6_1598017340,08/21/2020 01:42:20 PM +0000,Traffic Hazard,"(30.351457,-97.784909)",30.351457,-97.784909,4924-4971 Fm 2222 Rd,ARCHIVED,08/21/2020 02:20:04 PM +0000
C94C3FF3186FA0560180BA638775323FC4895576_1540148057,10/21/2018 06:54:17 PM +0000,COLLISION,"(30.470365,-97.896228)",30.470365,-97.89622800000001,9246-10033 LIME CREEK RD,ARCHIVED,10/21/2018 09:10:02 PM +0000
8FE39CAEAC3A30F1F5D796C87C71D3A53D8E8BCE_1563391803,07/17/2019 07:30:03 PM +0000,Traffic Hazard,"(30.259314,-97.693619)",30.259314,-97.693619,Airport Blvd & Shady Ln,ARCHIVED,07/17/2019 09:05:04 PM +0000
59BDEA78838432A6CD99117A73AFADD77C66410F_1532970807,07/30/2018 05:13:27 PM +0000,Traffic Hazard,"(30.21702,-97.666416)",30.21702,-97.666416,2000-2230 E Sh 71 Eb,ARCHIVED,07/30/2018 05:40:03 PM +0000
4FFBA05E292341E54F6B149967CF0E728D4F11E8_1532058143,07/20/2018 03:42:23 AM +0000,Traffic Hazard,"(30.376934,-97.676017)",30.376934000000002,-97.676017,11000-11400 N Ih 35 Nb,ARCHIVED,07/20/2018 04:00:03 AM +0000
99DBAF29F2C835CC4DFB0FC794B4B9ABDC8E2A66_1545140554,12/18/2018 01:42:34 PM +0000,COLLISION,"(30.112775,-97.78529)",30.112775,-97.78529,Fm 1327 Rd & Bradshaw Rd,ARCHIVED,12/18/2018 02:40:04 PM +0000
5A475AA62E49E59017B1FF7A402B92A8DC8D4A41_1618264126,04/12/2021 09:48:46 PM +0000,Traffic Hazard,"(30.352878,-97.423177)",30.352878000000004,-97.423177,13211-14307 KLAUS LN,ARCHIVED,04/12/2021 10:20:03 PM +0000
23C48E1AA4867FD335AC3497FA1061DE28CC7819_1593524624,06/30/2020 01:43:44 PM +0000,Traffic Hazard,"(30.442108,-97.665823)",30.442108,-97.665823,15002 Fm 1825 Rd,ARCHIVED,06/30/2020 02:20:04 PM +0000
5CAA47A3E35D5C847E2666A8F9C82C5287640E40_1616130400,03/19/2021 05:06:40 AM +0000,Traffic Hazard,"(30.160434,-97.648874)",30.160434000000002,-97.64887399999999,6804-6898 APPERSON ST,ARCHIVED,03/19/2021 06:15:03 AM +0000
CD53E2929FBF6B1F6F2069F6FFE5976FD5C31536_1611857710,01/28/2021 06:15:10 PM +0000,Traffic Hazard,"(30.241212,-97.775433)",30.241212,-97.77543299999999,1705 CINNAMON PATH,ARCHIVED,01/28/2021 06:50:03 PM +0000
A874F83E95A94266C7D2856A7CBB42EE5AF2E01A_1554235239,04/02/2019 08:00:39 PM +0000,Traffic Hazard,"(30.235672,-97.851847)",30.235671999999997,-97.85184699999999,6020-6024 W Us 290 Hwy Svrd Wb,ARCHIVED,04/02/2019 08:30:06 PM +0000
6D876D3B60F065969EFD1EA91ED87DDEF041CDF4_1591708574,06/09/2020 01:16:14 PM +0000,COLLISION,"(30.350523,-97.587772)",30.350523,-97.587772,8700 E PARMER LN,ARCHIVED,06/09/2020 02:00:04 PM +0000
01E3A3BB9CD2511B27D53D2F775104E07AC4F107_1522837886000,04/04/2018 10:31:00 AM +0000,Traffic Hazard,"(30.200548,-97.865434)",30.200547999999998,-97.865434,S Mopac Expy Nb & W Slaughter Ln,ARCHIVED,04/04/2018 10:55:00 AM +0000
CF9725A2055B246C88258A875D98584BA37189AF_1586434731,04/09/2020 12:18:51 PM +0000,Traffic Hazard,"(30.294815,-97.719445)",30.294815000000003,-97.719445,3800 N Ih 35 Upper Deck Nb,ARCHIVED,04/09/2020 12:30:03 PM +0000
7CA48B0569F515A124807357262BB8714E81FCA3_1607838697,12/13/2020 05:51:37 AM +0000,Traffic Hazard,"(30.133098,-97.754239)",30.133097999999997,-97.754239,10358-10605 Old Lockhart Rd,ARCHIVED,12/13/2020 06:05:04 AM +0000
8422051640D7C9A740564EFF35FBDCE111C6C557_1579382174,01/18/2020 09:16:14 PM +0000,Traffic Hazard,"(30.261344,-97.704342)",30.261344,-97.70434200000001,Tillery St & Castro St,ARCHIVED,01/18/2020 11:10:04 PM +0000
0BC39B9D01F6D3E81328CDA94EAEFE5005744CEC_1554387888,04/04/2019 02:24:48 PM +0000,Traffic Hazard,"(30.259081,-97.748762)",30.259081,-97.748762,400-523 W Riverside Dr,ARCHIVED,04/04/2019 04:00:07 PM +0000
518840ACEE770C7541A96E7202F3FF586F7B704D_1645951774,02/27/2022 08:49:34 AM +0000,Traffic Hazard,"(30.195116,-97.758156)",30.195116,-97.758156,2000 E Stassney Ln,ARCHIVED,02/27/2022 09:10:02 AM +0000
260DCC7B5B2C83DE295DD43F7FBC75BC39F857B9_1622254843,05/29/2021 02:20:43 AM +0000,Traffic Hazard,"(30.260728,-97.884497)",30.260728000000004,-97.884497,8514-8624 Southwest Pkwy,ARCHIVED,05/29/2021 03:40:04 AM +0000
90E54F2D1BCE9131AF868C7717CAAA236889F9EF_1533820897,08/09/2018 01:21:37 PM +0000,Traffic Hazard,"(30.13473,-97.734097)",30.134729999999998,-97.73409699999999,9600-BLK THAXTON RD,ARCHIVED,08/09/2018 01:50:02 PM +0000
CD53E2929FBF6B1F6F2069F6FFE5976FD5C31536_1567291448,08/31/2019 10:44:08 PM +0000,COLLISION,"(30.415788,-97.647558)",30.415788,-97.64755799999999,13902 Cambourne Dr,ARCHIVED,08/31/2019 11:35:05 PM +0000
158A66682DA61DF5F2115C2FC8C8328E6C837B05_1565824791,08/14/2019 11:19:51 PM +0000,Traffic Hazard,"(30.197754,-97.734144)",30.197753999999996,-97.734144,4701 Crest Oak Rd,ARCHIVED,08/14/2019 11:40:06 PM +0000
28658E19C983F1DBD02CD4E94FC3EBE9BBB4F46B_1514765746000,01/01/2018 12:15:00 AM +0000,Traffic Hazard,"(30.311174,-97.757396)",30.311173999999998,-97.757396,3652-4099 N Mopac Sb To 35th Ramp,ARCHIVED,01/01/2018 12:50:00 AM +0000
7801BEEC42DEBAAEC0D7BE9359C61E8A766BD071_1622246176,05/28/2021 11:56:16 PM +0000,Traffic Hazard,"(30.262285,-97.78923)",30.262285,-97.78923,S Mopac Expy Svrd Nb & Barton Skwy,ARCHIVED,05/29/2021 12:10:03 AM +0000
C84C7C86AC0619B3CD69A0F9D185EB5D6030D751_1545861209,12/26/2018 09:53:29 PM +0000,COLLISION,"(30.439996,-97.696646)",30.439996,-97.696646,3400-blk W WELLS BRANCH PKWY,ARCHIVED,12/26/2018 10:40:03 PM +0000
CA91ACE6F5DC0CC0323B88AA38EA72FA84A874A6_1559749667,06/05/2019 03:47:47 PM +0000,Traffic Hazard,"(30.121049,-97.715195)",30.121049,-97.715195,8922 WENDE RD,ARCHIVED,06/05/2019 04:45:04 PM +0000
941B11D1510AA9D549D5CBC8C521572BEBC8337A_1511778834000,11/27/2017 10:33:00 AM +0000,Traffic Hazard,"(30.227998,-97.781078)",30.227998,-97.78107800000001,1400 W Ben White Blvd Wb,ARCHIVED,11/27/2017 12:00:00 PM +0000
F30D26B7A985306EEEE2C464D4E59E8A7C1F8DDE_1526288191000,05/14/2018 08:56:00 AM +0000,Traffic Hazard,"(30.472262,-97.847612)",30.472262,-97.847612,ANDERSON MILL RD & CYPRESS CREEK RD,ARCHIVED,05/14/2018 09:20:00 AM +0000
D68D511A802252FA03DE1BBB8519C655446E2054_1529793349,06/23/2018 10:35:49 PM +0000,Traffic Hazard,"(30.164182,-97.692911)",30.164182,-97.692911,S Us 183 Hwy Nb & Fm 812 Rd,ARCHIVED,06/23/2018 10:50:04 PM +0000
1111F431B07C69ECFB4466EF65391C4BDB995848_1605977174,11/21/2020 04:46:14 PM +0000,Traffic Hazard,"(30.452624,-97.795364)",30.452624,-97.795364,12202 Wood Ibis Cir,ARCHIVED,11/21/2020 07:00:03 PM +0000
183723726A927563AD46963F2138CC147D04CEA0_1550524818,02/18/2019 09:20:18 PM +0000,Traffic Hazard,"(30.249459,-97.805694)",30.249459,-97.80569399999999,3310-3318 S Capital Of Texas Hwy Sb,ARCHIVED,02/18/2019 09:40:04 PM +0000
2972171F9CF6653AA953426952B5FFD2535D14A3_1514022101000,12/23/2017 09:41:00 AM +0000,Traffic Hazard,"(30.353873,-97.752871)",30.353872999999997,-97.752871,7131 Wood Hollow Dr,ARCHIVED,12/23/2017 09:55:00 AM +0000
9BD7909EA32C89F68E82ED0CBE1F30A2E1D72B1C_1524673130000,04/25/2018 04:18:00 PM +0000,Traffic Hazard,"(30.253458,-97.743785)",30.253458000000002,-97.743785,401-715 E Riverside Dr,ARCHIVED,04/25/2018 06:05:00 PM +0000
77086F48B88DC80058F6E5266C6BBB1C0EB826E0_1625783731,07/08/2021 10:35:31 PM +0000,COLLISION,"(30.280253,-97.610046)",30.280253000000002,-97.610046,Decker Lake Rd & Blue Bluff Rd,ARCHIVED,07/08/2021 11:25:03 PM +0000
A1F9EBB629D421DA846278DBDDDACB353598EBFF_1555110668,04/12/2019 11:11:08 PM +0000,COLLISION,"(30.244805,-97.585958)",30.244805,-97.58595799999999,4600-BLK SOJOURNER ST,ARCHIVED,04/13/2019 12:15:05 AM +0000
A66AB96FFF76B3C3C2810151921B30CE73DF0D0D_1563372020,07/17/2019 02:00:20 PM +0000,Traffic Hazard,"(30.237916,-97.749891)",30.237916,-97.749891,2311 Rebel Rd,ARCHIVED,07/17/2019 02:25:06 PM +0000
A6571BB4231C92B5AF46954A0950FDEEFF69F384_1555343768,04/15/2019 03:56:08 PM +0000,Traffic Hazard,"(30.285398,-97.712092)",30.285397999999997,-97.712092,Manor Rd & Merrie Lynn Ave,ARCHIVED,04/15/2019 04:25:04 PM +0000
7DC79C1E19D6699594E3E0AA4A1B431D3E088BE8_1558461497,05/21/2019 05:58:17 PM +0000,Traffic Hazard,"(30.438716,-97.668877)",30.438715999999996,-97.668877,14700 N IH 35 SB,ARCHIVED,05/21/2019 06:10:05 PM +0000
3DEFC7562611DA865D801E506DCA4F9DE6AAC674_1565451293,08/10/2019 03:34:53 PM +0000,COLLISION,"(30.1529,-97.769055)",30.1529,-97.76905500000001,1700 E Slaughter Ln,ARCHIVED,08/10/2019 04:30:05 PM +0000
A02A2FE9596BF1F59BD4CA2ECA3885C814393F10_1552668897,03/15/2019 04:54:57 PM +0000,Traffic Hazard,"(30.350847,-97.749283)",30.350846999999998,-97.74928299999999,6800 N Mopac Expy Sb,ARCHIVED,03/15/2019 05:10:04 PM +0000
D42F809CAFE06A2A03452CA07AB273A110E75314_1544244165,12/08/2018 04:42:45 AM +0000,Traffic Hazard,"(30.265324,-97.782304)",30.265324,-97.78230400000001,S Mopac Expy Svrd Nb & Bee Caves Rd,ARCHIVED,12/08/2018 04:55:03 AM +0000
0DCEDD9FF2B9E09E7BF85EEEC8CA731A3D606372_1623637923,06/14/2021 02:32:03 AM +0000,COLLISION,"(30.360637,-97.989936)",30.360637,-97.989936,Zephyr & Lakeway Dr,ARCHIVED,06/14/2021 02:40:04 AM +0000
96C71E10C9F797720254BF8AB512C22BEF680B46_1615322420,03/09/2021 08:40:20 PM +0000,Traffic Hazard,"(30.385117,-97.820667)",30.385116999999997,-97.820667,9100-blk Fm 2222 Rd,ARCHIVED,03/09/2021 08:50:03 PM +0000
C41882F67AA8B3FFB5D98F51F530E7A189C779CE_1645279089,02/19/2022 01:58:09 PM +0000,COLLISION,"(30.153953,-97.639737)",30.153953,-97.639737,Heine Farm Rd & Elroy Rd,ARCHIVED,02/19/2022 02:25:03 PM +0000
757578FBF23FFA4D748E0800DD7C424A46FEB0CC_1568496502,09/14/2019 09:28:22 PM +0000,Traffic Hazard,"(30.249451,-97.713612)",30.249451,-97.713612,1-516 S Pleasant Valley Rd,ARCHIVED,09/14/2019 10:00:06 PM +0000
F4647C599F9938F5990A0E45A9245A75C4C86950_1619642134,04/28/2021 08:35:34 PM +0000,COLLISION,"(30.425405,-97.67385)",30.425404999999998,-97.67385,1418-1508 W HOWARD LN,ARCHIVED,04/28/2021 10:10:03 PM +0000
4A1432C03DFFE532268819E1F8AB3083818ACE50_1563901490,07/23/2019 05:04:50 PM +0000,COLLISION,"(30.160862,-97.69214)",30.160861999999998,-97.69214000000001,6807 VIEWING PL,ARCHIVED,07/23/2019 06:30:06 PM +0000
53EB8055CF041753B3A43D89F2B9503C9BA333E1_1654864720,06/10/2022 12:38:40 PM +0000,Traffic Hazard,"(30.33692,-97.696035)",30.336920000000003,-97.696035,1000-1419 E Anderson Ln Eb,ARCHIVED,06/10/2022 12:50:03 PM +0000
B1EC5A3C7DEB0E3667D3FA14E547350F13B39159_1596994794,08/09/2020 05:39:54 PM +0000,Traffic Hazard,"(30.234385,-97.875375)",30.234384999999996,-97.875375,6901-7009 W SH 71,ARCHIVED,08/09/2020 05:50:04 PM +0000
741C07500DE9571F0267456ADC47830465E658E9_1568051847,09/09/2019 05:57:27 PM +0000,Traffic Hazard,"(30.400357,-97.745498)",30.400357,-97.745498,W Braker Ln & Research Blvd Svrd Nb,ARCHIVED,09/09/2019 06:15:04 PM +0000
6D8A27CA5BFA24239578274B06EF6D13846E2973_1554303222,04/03/2019 02:53:42 PM +0000,Traffic Hazard,"(30.366049,-97.535722)",30.366049,-97.53572199999999,Fallsprings Way & Amber Stream Ln,ARCHIVED,04/03/2019 03:20:06 PM +0000
6B4142E2E97B851A319B0FCAB23709B40E3FC19F_1521995323000,03/25/2018 04:28:00 PM +0000,Traffic Hazard,"(30.309083,-97.70961)",30.309083,-97.70961,1100-1138 E 51st St,ARCHIVED,03/26/2018 12:10:00 AM +0000
F4FAF47BB059D0A21962676667D734FEAA7549AE_1521792436000,03/23/2018 08:07:00 AM +0000,Traffic Hazard,"(30.285145,-97.806148)",30.285145,-97.806148,400-472 ROCKY RIVER RD,ARCHIVED,03/23/2018 01:25:00 PM +0000
8C08BA12C91E4E9E4777324CAD1CDC32378ABC29_1636573455,11/10/2021 07:44:15 PM +0000,Traffic Hazard,"(30.228259,-97.789405)",30.228259,-97.789405,Redd St & Menchaca Rd,ARCHIVED,11/10/2021 07:55:03 PM +0000
1533AD56150B32637090BE48AF8EEF374BDE71E4_1638806464,12/06/2021 04:01:04 PM +0000,Traffic Hazard,"(30.262698,-97.790215)",30.262697999999997,-97.790215,1400 S Mopac Expy Sb,ARCHIVED,12/06/2021 04:15:04 PM +0000
7C79321AB1BC0DD447682AC5372A0D5BFA8F251F_1571507271,10/19/2019 05:47:51 PM +0000,Traffic Hazard,"(30.280335,-97.75374)",30.280334999999997,-97.75374000000001,Enfield Rd & W 15th St,ARCHIVED,10/19/2019 07:25:04 PM +0000
AD5EFBFC94BA12B4C7A5DD1040E58407E4D5D2E6_1512664692000,12/07/2017 04:38:00 PM +0000,COLLISION,"(30.317594,-97.860503)",30.317594,-97.86050300000001,8800-8825 Fm 2244 Rd,ARCHIVED,12/07/2017 05:50:00 PM +0000
3623CEE175E3A6FBBA169B210A460FCC3B7FE614_1600459266,09/18/2020 08:01:06 PM +0000,COLLISION,"(30.297837,-97.827827)",30.297837,-97.827827,S CAPITAL OF TEXAS HWY NB & BEE CAVES TO CAP TX NB RAMP,ARCHIVED,09/18/2020 08:10:04 PM +0000
B6808C6A6514680B9D8425C63148958350B9EAF6_1538079945,09/27/2018 08:25:45 PM +0000,Traffic Hazard,"(30.309014,-97.591947)",30.309014,-97.59194699999999,10501 BLOOR RD,ARCHIVED,09/27/2018 09:25:03 PM +0000
AD5EFBFC94BA12B4C7A5DD1040E58407E4D5D2E6_1576879014,12/20/2019 09:56:54 PM +0000,COLLISION,"(30.342798,-97.752349)",30.342798,-97.752349,6100-BLK N MOPAC EXPY NB,ARCHIVED,12/20/2019 10:20:04 PM +0000
6D79AC70FCCBE187D7F97AC9E62067753408BC0F_1607797880,12/12/2020 06:31:20 PM +0000,Traffic Hazard,"(30.245145,-97.751304)",30.245145,-97.751304,S Congress Ave & W Mary St,ARCHIVED,12/12/2020 07:25:03 PM +0000
150AFBA2F606BF3E450D7DBFBA16C6673580CB77_1583719850,03/09/2020 02:10:50 AM +0000,Traffic Hazard,"(30.374119,-97.669876)",30.374119,-97.669876,E Braker Ln & Walnut Ridge Dr,ARCHIVED,03/09/2020 02:25:04 AM +0000
6BCFFC15B660B6DF99D88A62E6F07E27520309EE_1516805710000,01/24/2018 02:55:00 PM +0000,Traffic Hazard,"(30.250623,-97.735995)",30.250622999999997,-97.73599499999999,900 S Ih 35 Sb,ARCHIVED,01/24/2018 10:00:00 PM +0000
73EE4958BDB5A056029EBD39B8ABBAA3DBC0F333_1580940969,02/05/2020 10:16:09 PM +0000,Traffic Hazard,"(30.407543,-97.678277)",30.407543,-97.67827700000001,12400-12442 N Lamar Blvd,ARCHIVED,02/05/2020 10:55:04 PM +0000
F267B8E5A7E8B7E956D2278FCC345757478B3703_1525780783000,05/08/2018 11:59:00 AM +0000,COLLISION,"(30.273102,-97.798485)",30.273102,-97.798485,Rollingwood Dr & Bee Caves Rd,ARCHIVED,05/08/2018 12:55:00 PM +0000
DB5976F7596FB6AB160829C7D28336559C9C0AB2_1589922532,05/19/2020 09:08:52 PM +0000,Traffic Hazard,"(30.191989,-97.698371)",30.191989000000003,-97.698371,Burleson Rd & Mc Kinney Falls Pkwy,ARCHIVED,05/19/2020 09:45:03 PM +0000
7FD0DC28DB1B5252F0ACA04247CF21853F772E70_1574298250,11/21/2019 01:04:10 AM +0000,Traffic Hazard,"(30.232504,-97.852997)",30.232504,-97.852997,5602 Honey Dew Ter,ARCHIVED,11/21/2019 01:25:03 AM +0000
C11226C53FC4C8033C2BF2EDA91A1FB4029365DC_1620868514,05/13/2021 01:15:14 AM +0000,Traffic Hazard,"(30.387004,-97.648592)",30.387003999999997,-97.64859200000001,Dessau Rd & E Parmer Ln,ARCHIVED,05/13/2021 01:55:04 AM +0000
70A1FEB7907EB7F1D49939E991BE2FD1E3ED086A_1624155907,06/20/2021 02:25:07 AM +0000,COLLISION,"(30.140527,-97.831428)",30.140527000000002,-97.831428,1002-1025 W FM 1626 RD,ARCHIVED,06/20/2021 03:05:03 AM +0000
43B907EBFC5245AC8A6610CCDD6FB5BBEF45CE8A_1513952305000,12/22/2017 02:18:00 PM +0000,Traffic Hazard,"(30.235409,-97.855121)",30.235409000000004,-97.855121,5700-6156 W Us 290 Hwy Wb,ARCHIVED,12/22/2017 04:05:00 PM +0000
B5F55A9D15C6752E5D9DFD7336FFB008B403DC19_1631998385,09/18/2021 08:53:05 PM +0000,Traffic Hazard,"(30.164182,-97.692911)",30.164182,-97.692911,8600-8811 FM 812 RD,ARCHIVED,09/18/2021 09:05:03 PM +0000
8F723119A7842320B2BC984B04D2A76808E8EBD7_1619748649,04/30/2021 02:10:49 AM +0000,Traffic Hazard,"(30.395249,-97.846449)",30.395249,-97.84644899999999,10800-11525 Fm 2222 Rd,ARCHIVED,04/30/2021 04:05:02 AM +0000
96FA3E6F71FD2261F7325C90CDA49AEDD8641132_1600518818,09/19/2020 12:33:38 PM +0000,Traffic Hazard,"(30.397073,-97.73561)",30.397073,-97.73561,3909-3929 W BRAKER LN,ARCHIVED,09/19/2020 01:00:05 PM +0000
0F4ACCAC41206A76CA221881817C62559CEE4F00_1573412455,11/10/2019 07:00:55 PM +0000,Traffic Hazard,"(30.376714,-97.781308)",30.376714,-97.781308,7700 N Capital Of Texas Hwy Sb,ARCHIVED,11/10/2019 07:30:04 PM +0000
60C037CD2766209C22955EA85025834483170CC4_1568984773,09/20/2019 01:06:13 PM +0000,COLLISION,"(30.256997,-97.611818)",30.256997,-97.611818,Fm 969 Rd & N Fm 973 Rd,ARCHIVED,09/20/2019 02:25:04 PM +0000
63B15C94F3EA3F01CFAF04A6732A0333968EAF29_1523010412000,04/06/2018 10:26:00 AM +0000,Traffic Hazard,"(30.190674,-97.770881)",30.190673999999998,-97.770881,S Ih 35 Svrd Sb & E William Cannon Dr,ARCHIVED,04/06/2018 11:00:00 AM +0000
818C3CA96B188792670C6A0993BAA894E345A689_1536283689,09/07/2018 01:28:09 AM +0000,Traffic Hazard,"(30.241047,-97.737398)",30.241047,-97.737398,S Ih 35 Svrd Sb & Woodland Ave,ARCHIVED,09/07/2018 01:55:02 AM +0000
EE79CFC6DDF6B115A67C91FA940471B9FE90429B_1617566906,04/04/2021 08:08:26 PM +0000,Traffic Hazard,"(30.231659,-97.717471)",30.231659000000004,-97.717471,E Riverside Dr & Crossing Pl,ARCHIVED,04/04/2021 09:25:16 PM +0000
94F2C41FB496C662BA09932C53C156E2BD34DBCF_1561628269,06/27/2019 09:37:49 AM +0000,Traffic Hazard,"(30.263382,-97.744567)",30.263382,-97.744567,W Cesar Chavez St & Congress Ave,ARCHIVED,06/27/2019 09:45:04 AM +0000
BD8C106CC7D7649BEF42E9662D7E821A6A2961E8_1631074966,09/08/2021 04:22:46 AM +0000,Traffic Hazard,"(30.18905,-97.582844)",30.18905,-97.582844,Navarro Creek Rd & E Sh 71 Eb,ARCHIVED,09/08/2021 04:40:02 AM +0000
7A7EA1512BC5014FD1B25FF389938BC75D25315D_1571357237,10/18/2019 12:07:17 AM +0000,Traffic Hazard,"(30.237919,-97.733139)",30.237919,-97.73313900000001,1800-1830 PARKER LN,ARCHIVED,10/18/2019 01:40:04 AM +0000
302DEBB6C519F451B6A857DD329981BCAFF772DD_1643314122,01/27/2022 08:08:42 PM +0000,Traffic Hazard,"(30.198402,-97.690168)",30.198402,-97.690168,3601-3719 Mc Kinney Falls Pkwy,ARCHIVED,01/27/2022 10:10:02 PM +0000
CC19B4E902F58637AF736A8393EFE79EF4829AAA_1608855897,12/25/2020 12:24:57 AM +0000,COLLISION,"(30.139985,-97.663825)",30.139985,-97.663825,FM 812 RD & S SH 130 SVRD NB,ARCHIVED,12/25/2020 12:55:03 AM +0000
954766448011A573ED48E3E92F4B069F62EF4B92_1635899989,11/03/2021 12:39:49 AM +0000,COLLISION,"(30.232638,-97.818416)",30.232638,-97.818416,5000 BRODIE LN,ARCHIVED,11/03/2021 12:50:03 AM +0000
1FDC44F369950B3467C435044A9B89B77D39B7B7_1510643197000,11/14/2017 07:06:00 AM +0000,Traffic Hazard,"(30.146895,-97.624959)",30.146895,-97.62495899999999,7700-blk ELROY RD,ARCHIVED,11/14/2017 07:25:00 AM +0000
9C3D9746E3DEF4E72391716B528F6F3F28368E16_1604192168,11/01/2020 12:56:08 AM +0000,COLLISION,"(30.296653,-97.834672)",30.296653000000003,-97.834672,6500 Fm 2244 Rd,ARCHIVED,11/01/2020 02:00:04 AM +0000
70A1FEB7907EB7F1D49939E991BE2FD1E3ED086A_1536857726,09/13/2018 04:55:26 PM +0000,Traffic Hazard,"(30.286417,-97.770524)",30.286417,-97.770524,1200-1213 Possum Trot,ARCHIVED,09/13/2018 06:00:03 PM +0000
8298A22CC0F895D0083F2D3E2E2FADC5D3E26329_1575776757,12/08/2019 03:45:57 AM +0000,COLLISION,"(30.14535,-97.73011)",30.14535,-97.73011,8608 Thaxton Rd,ARCHIVED,12/08/2019 03:55:03 AM +0000
5070BE49E5B2AEE2297A3F986768A4AA0E7B1442_1510910074000,11/17/2017 09:14:00 AM +0000,Traffic Hazard,"(30.347005,-97.712424)",30.347005,-97.712424,W Anderson Ln Svrd Eb & N Lamar Blvd Svrd Nb,ARCHIVED,11/17/2017 09:45:00 AM +0000
FB3099D0EB4C3EDFA0DB61100342D1EBDFD8E479_1546902811,01/07/2019 11:13:31 PM +0000,COLLISION,"(30.446054,-98.003357)",30.446053999999997,-98.003357,GREEN SHORE CIR & OUTPOST TRCE,ARCHIVED,01/07/2019 11:20:05 PM +0000
071819749594ED380380DCA6AED0F24E25CC9269_1563745578,07/21/2019 09:46:18 PM +0000,Traffic Hazard,"(30.227614,-97.778136)",30.227614000000003,-97.778136,1200 W Ben White Blvd Eb,ARCHIVED,07/21/2019 11:00:08 PM +0000
CE576F7843F6F93E3C1E80495E2038C8438E5E59_1532563484,07/26/2018 12:04:44 AM +0000,COLLISION,"(30.19111,-97.620681)",30.19111,-97.620681,4200-4332 E Sh 71 Eb,ARCHIVED,07/26/2018 12:45:03 AM +0000
84080E163F546F114E0D57174A944192E1E7C7A1_1608585084,12/21/2020 09:11:24 PM +0000,COLLISION,"(30.389777,-97.88226)",30.389777000000002,-97.88226,N Quinlan Park Rd & N Fm 620 Rd,ARCHIVED,12/21/2020 09:45:03 PM +0000
174BE25D5D722F9C55463FC69B432A167EB51D22_1643874116,02/03/2022 07:41:56 AM +0000,COLLISION,"(30.187655,-97.562346)",30.187655,-97.56234599999999,5055-5097 E Sh 71 Wb,ARCHIVED,02/03/2022 08:45:03 AM +0000
ED44F03C79AE6FC90AD415E4F1DE7E5308DB9FBD_1550465777,02/18/2019 04:56:17 AM +0000,Traffic Hazard,"(30.185006,-97.547028)",30.185006,-97.547028,5300-blk E Sh 71 Eb,ARCHIVED,02/18/2019 05:55:03 AM +0000
0CCC9BC1BB63CCC1F2123272DEF4A1963C2B60E5_1556311890,04/26/2019 08:51:30 PM +0000,Traffic Hazard,"(30.254392,-97.716751)",30.254392,-97.716751,90-99 Pedernales St,ARCHIVED,04/26/2019 09:40:04 PM +0000
6C53D5A4945EC20E85EEE6BA10FA711C8606EBD0_1562241152,07/04/2019 11:52:32 AM +0000,Traffic Hazard,"(30.314041,-97.738776)",30.314040999999996,-97.738776,1100 W 45th St,ARCHIVED,07/04/2019 12:05:04 PM +0000
C61211674FD03175FEC87A9C01F39F72376CE104_1545861806,12/26/2018 10:03:26 PM +0000,COLLISION,"(30.44942,-97.830234)",30.44942,-97.83023399999999,10907 N Fm 620 Rd,ARCHIVED,12/26/2018 10:50:04 PM +0000
C71CC62930CF523FCF54EFD029485F66FA5D839A_1649373756,04/07/2022 11:22:36 PM +0000,Traffic Hazard,"(30.162985,-97.652842)",30.162985,-97.652842,6700-7224 S SH 130 SB,ARCHIVED,04/07/2022 11:55:03 PM +0000
A0C3CD9E41D288D91A6651CFC2B768DF5E86B175_1585247897,03/26/2020 06:38:17 PM +0000,Traffic Hazard,"(30.350775,-97.675987)",30.350775,-97.675987,E Rundberg Ln & Dessau Rd,ARCHIVED,03/26/2020 07:10:04 PM +0000
DAE5FD66A9257B4F6461079F24D43322E5D86662_1538847523,10/06/2018 05:38:43 PM +0000,Traffic Hazard,"(30.441697,-97.980495)",30.441696999999998,-97.98049499999999,5200-blk LOHMANS FORD RD,ARCHIVED,10/06/2018 05:45:02 PM +0000
39E54A158CBD072006F00EDDBF9A12712457328D_1533317905,08/03/2018 05:38:25 PM +0000,Traffic Hazard,"(30.175137,-97.769472)",30.175137,-97.769472,BLUFF SPRINGS RD & SUNNY HILLS DR,ARCHIVED,08/03/2018 06:35:05 PM +0000
8C99E890FB1DC905B1E23FC12A520D0B6178F51A_1571280213,10/17/2019 02:43:33 AM +0000,COLLISION,"(30.405596,-97.556035)",30.405596000000003,-97.556035,16516-16649 Cameron Rd,ARCHIVED,10/17/2019 04:25:03 AM +0000
DD1E4AB55AAB789BC3D29E46540739AB435478B4_1591871596,06/11/2020 10:33:16 AM +0000,Traffic Hazard,"(30.179672,-97.7469)",30.179671999999997,-97.7469,E WILLIAM CANNON DR & S PLEASANT VALLEY RD,ARCHIVED,06/11/2020 12:05:03 PM +0000
786A0A9946E25CD7DDF771B79508FF21CCEFA787_1640717187,12/28/2021 06:46:27 PM +0000,Traffic Hazard,"(30.281574,-97.666411)",30.281574,-97.666411,4500 Ed Bluestein Blvd Nb,ARCHIVED,12/28/2021 07:35:03 PM +0000
6B20382196FB454E9FD06A33E60142902A2F0706_1588618406,05/04/2020 06:53:26 PM +0000,COLLISION,"(30.30725,-97.975396)",30.30725,-97.97539599999999,14714 Hamilton Pool Rd,ARCHIVED,05/04/2020 07:00:04 PM +0000
AFBE443A2F3AF0DB633E969307F94DF203A7DDB6_1626818499,07/20/2021 10:01:39 PM +0000,COLLISION,"(30.448716,-97.661714)",30.448715999999997,-97.661714,VISION DR & FM 1825 RD,ARCHIVED,07/20/2021 10:40:02 PM +0000
0F23EB04FA3D66BCE3CB03DE0629AC1B4FD32BBB_1533761749,08/08/2018 08:55:49 PM +0000,Traffic Hazard,"(30.393585,-97.746607)",30.393584999999998,-97.746607,10100 RESEARCH BLVD SB,ARCHIVED,08/08/2018 09:10:02 PM +0000
2D15BE2D3F998B6DC732173F51D7223AC95773B4_1582642500,02/25/2020 02:55:00 PM +0000,Traffic Hazard,"(30.334261,-97.607335)",30.334260999999998,-97.60733499999999,DECKER LN & E US 290 HWY SVRD EB,ARCHIVED,02/25/2020 03:35:04 PM +0000
229BE39E04F960E46D8A64CADC8B4534E6BFC364_1575928276,12/09/2019 09:51:16 PM +0000,Traffic Hazard,"(30.25668,-97.893137)",30.25668,-97.893137,Old Bee Caves Rd & Mountain Shadows Dr,ARCHIVED,12/09/2019 10:10:03 PM +0000
2E535D26C2AFB570ECCC98EB68713EBA4358CA6E_1556512372,04/29/2019 04:32:52 AM +0000,Traffic Hazard,"(30.223409,-97.763598)",30.223409000000004,-97.763598,E Ben White Blvd Svrd Wb & S Congress Ave,ARCHIVED,04/29/2019 05:35:04 AM +0000
3EF7538B0F216C80090141B725F27B3D0767A38C_1530281174,06/29/2018 02:06:14 PM +0000,Traffic Hazard,"(30.22248,-97.764171)",30.222479999999997,-97.76417099999999,S Congress Ave & W Ben White Blvd Svrd Eb,ARCHIVED,06/29/2018 02:20:05 PM +0000
A347E89F9481B2C0628E0435C2860C2E7EB85C03_1614779882,03/03/2021 01:58:02 PM +0000,COLLISION,,0.0,0.0,Ih 35 SB,ARCHIVED,03/03/2021 02:10:03 PM +0000
C5E8754637504E5EBF868EFC915AE09CB8BA1C3B_1632773898,09/27/2021 08:18:18 PM +0000,Traffic Hazard,"(30.283757,-97.704752)",30.283757,-97.704752,2015 AIRPORT BLVD,ARCHIVED,09/27/2021 08:30:05 PM +0000
C1CDACA40793908F4DA39B235D3016D1202E1CB3_1527001178000,05/22/2018 02:59:00 PM +0000,Traffic Hazard,"(30.263077,-97.735115)",30.263077000000003,-97.73511500000001,300-309 N Ih 35 Svrd Nb,ARCHIVED,05/22/2018 03:10:00 PM +0000
1373EA12BAAA638B59CA93994D65CC541259C1BB_1619217551,04/23/2021 10:39:11 PM +0000,COLLISION,"(30.397674,-97.928911)",30.397674,-97.928911,N FM 620 RD & HUDSON BEND RD,ARCHIVED,04/23/2021 11:30:02 PM +0000
AFAB49F6867BEE0F1A854B04D73CF2605CC29593_1599948722,09/12/2020 10:12:02 PM +0000,COLLISION,"(30.440141,-97.695772)",30.440140999999997,-97.69577199999999,3300 W Wells Branch Pkwy,ARCHIVED,09/12/2020 10:35:03 PM +0000
13D1433C84AC448FD47349A00B528DBD91E6F28A_1608339054,12/19/2020 12:50:54 AM +0000,COLLISION,"(30.288603,-98.049784)",30.288603000000002,-98.049784,17769-18017 Hamilton Pool Rd,ARCHIVED,12/19/2020 01:30:03 AM +0000
EC28361885EDEB63E1EFF30695CE51F8FD212465_1512026192000,11/30/2017 07:16:00 AM +0000,Traffic Hazard,"(30.366384,-97.584357)",30.366384000000004,-97.584357,12800-13524 N SH 130 SB,ARCHIVED,11/30/2017 07:45:00 AM +0000
7028EE0D3C34C181058F6594B2E030DDCAF5AACC_1607698551,12/11/2020 02:55:51 PM +0000,Traffic Hazard,"(30.299141,-97.570638)",30.299141,-97.570638,Bloor Rd & N Sh 130 Svrd Sb,ARCHIVED,12/11/2020 03:30:03 PM +0000
CC9F33DE11D62A820F76B1B9775A9E9DBDBCDF76_1573047209,11/06/2019 01:33:29 PM +0000,Traffic Hazard,"(30.16302,-97.860159)",30.16302,-97.860159,11600 Brodie Ln,ARCHIVED,11/06/2019 01:55:03 PM +0000
5991C2EFCFB90EC6BC16FE7A1100F5F49A2EE4A1_1584729008,03/20/2020 06:30:08 PM +0000,Traffic Hazard,"(30.358123,-97.687833)",30.358123,-97.687833,714-716 E Rundberg Ln,ARCHIVED,03/20/2020 07:25:03 PM +0000
D2B77EBA190F0947FEC6F4EA390E31488AE19D61_1536705882,09/11/2018 10:44:42 PM +0000,COLLISION,"(30.162106,-97.653365)",30.162106,-97.65336500000001,6700-7224 S Sh 130 Sb,ARCHIVED,09/12/2018 12:40:03 AM +0000
1C236C76127575E539A03D4621AA35451321622C_1655447410,06/17/2022 06:30:10 AM +0000,Traffic Hazard,"(30.256104,-97.554585)",30.256103999999997,-97.554585,6600-6613 TAYLOR LN,ARCHIVED,06/17/2022 07:05:02 AM +0000
133595604EEA1D1266E39CCBB49B582682FD4DB3_1637418741,11/20/2021 02:32:21 PM +0000,Traffic Hazard,"(30.307634,-97.696523)",30.307634000000004,-97.696523,5306-5323 Berkman Dr,ARCHIVED,11/20/2021 03:15:37 PM +0000
780E202B137A715C8D1B159E4E1540323203CDD8_1528365967000,06/07/2018 10:06:00 AM +0000,Traffic Hazard,"(30.181309,-97.776512)",30.181309000000002,-97.776512,7500 S Ih 35 Nb,ARCHIVED,06/07/2018 10:25:00 AM +0000
8298A22CC0F895D0083F2D3E2E2FADC5D3E26329_1625971711,07/11/2021 02:48:31 AM +0000,Traffic Hazard,"(30.231325,-97.805658)",30.231325,-97.805658,W 290 Eb To Sunset Ramp & S Lamar Blvd Svrd Nb,ARCHIVED,07/11/2021 03:15:34 AM +0000
1111F431B07C69ECFB4466EF65391C4BDB995848_1619474999,04/26/2021 10:09:59 PM +0000,Traffic Hazard,"(30.221991,-97.955914)",30.221991,-97.955914,10900-11213 W US 290 HWY,ARCHIVED,04/26/2021 10:30:03 PM +0000
BCB8DE9F87FD30BC5D8EEB36C364469A4D26E04D_1618604043,04/16/2021 08:14:03 PM +0000,Traffic Hazard,"(30.30197,-97.714821)",30.30197,-97.714821,4300-4501 N Ih 35 Svrd Nb,ARCHIVED,04/16/2021 09:20:03 PM +0000
4AB46ED419587791DCEF1A1E2391AD6C371A26B9_1655581608,06/18/2022 07:46:48 PM +0000,COLLISION,"(30.479343,-97.94478)",30.479343,-97.94478000000001,Fm 1431 Rd & W Reed Parks Rd,ARCHIVED,06/18/2022 08:50:03 PM +0000
A66AB96FFF76B3C3C2810151921B30CE73DF0D0D_1537483380,09/20/2018 10:43:00 PM +0000,COLLISION,"(30.42198,-97.38193)",30.421979999999998,-97.38193000000001,16300-17625 S Sh 95,ARCHIVED,09/21/2018 12:00:03 AM +0000
4E90091068533B241B2634A3599D34ABCA4C11AF_1619196187,04/23/2021 04:43:07 PM +0000,Traffic Hazard,"(30.208347,-97.86159)",30.208346999999996,-97.86159,Davis Ln & S Mopac Expy Svrd Sb,ARCHIVED,04/23/2021 04:55:02 PM +0000
CB337DEA7B4AE1A51F41A8388CBCD9457618799D_1531400254,07/12/2018 12:57:34 PM +0000,COLLISION,"(30.229168,-97.586527)",30.229167999999998,-97.586527,14920-BLK CUSTIS LN,ARCHIVED,07/12/2018 01:45:02 PM +0000
52EDBE46E3908A2336D7301E277D4B66A44C2F02_1526278225000,05/14/2018 06:10:00 AM +0000,Traffic Hazard,"(30.337197,-97.75546)",30.337196999999996,-97.75546,5600-5800 N Mopac Expy Sb,ARCHIVED,05/14/2018 06:55:00 AM +0000
B3AD32A369754EE7ACF23C5370CCF5B401604A78_1564780648,08/02/2019 09:17:28 PM +0000,Traffic Hazard,"(30.392932,-97.841825)",30.392932000000002,-97.841825,Fm 2222 Rd & Sitio Del Rio Blvd,ARCHIVED,08/02/2019 11:10:04 PM +0000
D27C5A6872D7C57D29EF416866E2AA92EAE10018_1533846603,08/09/2018 08:30:03 PM +0000,Traffic Hazard,"(30.220898,-97.797949)",30.220898,-97.797949,2203 Fair Oaks Dr,ARCHIVED,08/09/2018 09:45:02 PM +0000
E6477EA575D0D5B1239E1E482793FB1BBF19CC19_1651284326,04/30/2022 02:05:26 AM +0000,COLLISION,"(30.183851,-97.62907)",30.183851,-97.62907,0 PEARCE LN TO S SH 130 NB RAMP,ARCHIVED,04/30/2022 02:35:03 AM +0000
9A6B59DA46371D86EB75259C956AEE4B580C0119_1564264991,07/27/2019 10:03:11 PM +0000,Traffic Hazard,"(30.341742,-97.84583)",30.341742,-97.84583,1001-1099 ZONE LAKE AUSTIN,ARCHIVED,07/27/2019 10:15:05 PM +0000
5A475AA62E49E59017B1FF7A402B92A8DC8D4A41_1566250802,08/19/2019 09:40:02 PM +0000,COLLISION,"(30.348898,-97.552312)",30.348898,-97.552312,11400-BLK E US 290 HWY EB,ARCHIVED,08/19/2019 10:40:05 PM +0000
70B8DCB93382715A55CE5F2A8356EF5636A2D2DA_1644364597,02/08/2022 11:56:37 PM +0000,Traffic Hazard,"(30.339548,-97.593952)",30.339547999999997,-97.593952,10000 E Us 290 Hwy Wb,ARCHIVED,02/09/2022 12:25:02 AM +0000
AAB7F20827E516402F2387BA6F4F65ADB26B54BC_1613531136,02/17/2021 03:05:36 AM +0000,Traffic Hazard,"(30.173724,-97.823807)",30.173724,-97.82380699999999,Menchaca Rd & W Slaughter Ln,ARCHIVED,02/17/2021 03:15:03 AM +0000
1C90B882D4AC9C7D95D597BD8B37E3BFA36AEC00_1523122990000,04/07/2018 05:43:00 PM +0000,Traffic Hazard,"(30.268417,-97.744128)",30.268417,-97.744128,W 6th St & Colorado St,ARCHIVED,04/07/2018 06:05:00 PM +0000
AD5EFBFC94BA12B4C7A5DD1040E58407E4D5D2E6_1593554240,06/30/2020 09:57:20 PM +0000,COLLISION,"(30.356067,-97.836324)",30.356067,-97.836324,Glenlake Dr & Plantain Cv,ARCHIVED,06/30/2020 10:45:04 PM +0000
91A0461DA8536C97056D3B86390D0BDD472CA52B_1578274133,01/06/2020 01:28:53 AM +0000,Traffic Hazard,"(30.301588,-97.792026)",30.301588,-97.792026,1871 Westlake Dr,ARCHIVED,01/06/2020 01:45:05 AM +0000
E0837D45B42D05C84938A39FDE34641FF3BC328D_1603664697,10/25/2020 10:24:57 PM +0000,Traffic Hazard,"(30.25065,-97.754632)",30.25065,-97.754632,1400 S 1st St,ARCHIVED,10/25/2020 10:35:03 PM +0000
C04038A9EFD402B01F5733A5DF5E0248D29A1AD8_1512252026000,12/02/2017 10:00:00 PM +0000,Traffic Hazard,"(30.255989,-97.737098)",30.255989000000003,-97.737098,50 N Ih 35 Sb,ARCHIVED,12/02/2017 10:45:00 PM +0000
D9B55863436F0FDA0DB648E8B219654141FC8270_1553034249,03/19/2019 10:24:09 PM +0000,COLLISION,"(30.510457,-98.038059)",30.510457000000002,-98.03805899999999,Fm 1431 Rd & Singleton Bend Rd,ARCHIVED,03/20/2019 12:15:04 AM +0000
53EB8055CF041753B3A43D89F2B9503C9BA333E1_1525622537000,05/06/2018 04:02:00 PM +0000,COLLISION,"(30.443824,-97.657177)",30.443824,-97.657177,15305 Velias Way,ARCHIVED,05/06/2018 04:55:00 PM +0000
2C7EF0922DDD74809CA7CF4FE2F7A8A5E86F6BFA_1648128866,03/24/2022 01:34:26 PM +0000,Traffic Hazard,"(30.287567,-97.665028)",30.287567,-97.665028,5000-6300 Ed Bluestein Blvd Sb,ARCHIVED,03/24/2022 03:05:03 PM +0000
D4E1ACA5DD0E4965A2A66E1256E5B25A346A759B_1619398420,04/26/2021 12:53:40 AM +0000,Traffic Hazard,"(30.273547,-97.697964)",30.273546999999997,-97.697964,3201 Oak Springs Dr,ARCHIVED,04/26/2021 01:00:03 AM +0000
74651A0D02E97130ABB18882EBB61B9FE5884603_1550681435,02/20/2019 04:50:35 PM +0000,Traffic Hazard,"(30.280446,-97.811664)",30.280446,-97.81166400000001,Eanes School Rd & Camp Craft Rd,ARCHIVED,02/20/2019 05:05:04 PM +0000
ABCD1C5876F36174110775438923CE78ACBF8594_1637253660,11/18/2021 04:41:00 PM +0000,Traffic Hazard,"(30.322142,-97.684129)",30.322142,-97.684129,7048 E Us 290 Hwy Svrd Wb,ARCHIVED,11/18/2021 05:35:03 PM +0000
9D4EBBA60FD8D43C36E800C3239CECBE9A06419F_1616275688,03/20/2021 09:28:08 PM +0000,Traffic Hazard,"(30.267137,-97.77075)",30.267136999999998,-97.77075,Barton Springs Rd & Stratford Dr,ARCHIVED,03/20/2021 10:05:04 PM +0000
DEE280AB1D93172B099C842F680A8E40E389C4C6_1533658634,08/07/2018 04:17:14 PM +0000,Traffic Hazard,"(30.164566,-97.693647)",30.164565999999997,-97.693647,8500-8525 Dee Gabriel Collins Rd,ARCHIVED,08/07/2018 04:35:03 PM +0000
2D5760791B83A579633C9EB57F63B0F1127DAEF9_1574178653,11/19/2019 03:50:53 PM +0000,COLLISION,"(30.141012,-97.846664)",30.141012,-97.846664,Brodie Ln & W Fm 1626 Rd,ARCHIVED,11/19/2019 04:30:05 PM +0000
EB49DC1097EB13B32C84191D07CA3FFC2CC23C4F_1594682163,07/13/2020 11:16:03 PM +0000,Traffic Hazard,"(30.092741,-97.781792)",30.092740999999997,-97.78179200000001,N TURNERSVILLE RD & S TURNERSVILLE RD,ARCHIVED,07/13/2020 11:55:03 PM +0000
6CCF18992FF5EA664718C1372EA46636A87FEE23_1558436282,05/21/2019 10:58:02 AM +0000,COLLISION,"(30.349292,-97.538573)",30.349292,-97.538573,E Us 290 Hwy Wb & N Fm 973 Rd,ARCHIVED,05/21/2019 11:35:05 AM +0000
5D1BDAE6389C2A1988415D2F9B9EC2070341371D_1652251430,05/11/2022 06:43:50 AM +0000,Traffic Hazard,"(30.478727,-97.765657)",30.478727000000003,-97.76565699999999,9222-9424 W Parmer Ln,ARCHIVED,05/11/2022 06:55:03 AM +0000
709C7DBB3799C8CC779706C907513661DF268CBC_1572817672,11/03/2019 09:47:52 PM +0000,Traffic Hazard,"(30.397973,-97.746244)",30.397972999999997,-97.74624399999999,10210-11156 Research Blvd Sb,ARCHIVED,11/03/2019 10:00:05 PM +0000
18DD9438519462132A38EF68B7313ADCDFB16CA5_1534338781,08/15/2018 01:13:01 PM +0000,Traffic Hazard,"(30.336067,-97.755695)",30.336067,-97.75569499999999,5400-5500 N Mopac Expy Sb,ARCHIVED,08/15/2018 01:30:02 PM +0000
